osm_id,code,fclass,name,point_x,point_y,lon,lat
353968974,2082,school,Saint Louis the King School,-83.0406695000,42.4329169000,-83.04067,42.43292
6120173771,2501,supermarket,Imperial Supermarket,-83.0819348000,42.4462710000,-83.08193,42.44627
353952982,2082,school,Our Lady of Good Counsel School,-83.4735466000,42.3736474000,-83.47355,42.37365
353959914,2082,school,Our Lady of Providence School,-83.5118810000,42.4019801000,-83.51188,42.40198
353973552,2082,school,Sheldon School,-83.4818801000,42.2755937000,-83.48188,42.27559
353981743,2082,school,University of Michigan Institute of Science,-83.4995120000,42.2427365000,-83.49951,42.24274
353981858,2082,school,Field School,-83.4488236000,42.3005932000,-83.44882,42.30059
354013780,2082,school,Hoben Elementary School,-83.4798000000,42.3147000000,-83.4798,42.3147
354020156,2082,school,Saint Peter Lutheran Day School,-83.4759000000,42.3739000000,-83.4759,42.3739
354020316,2082,school,Saint Michael Christian School,-83.4786000000,42.3349000000,-83.4786,42.3349
354021766,2082,school,Eriksson Elementary School,-83.4487000000,42.3171000000,-83.4487,42.3171
354023087,2082,school,Agape Christian Academy,-83.4781000000,42.2757000000,-83.4781,42.2757
625664300,2501,supermarket,Busch's,-83.4832381000,42.3944016000,-83.48324,42.3944
626796375,2303,cafe,Boule Artisan Bakery,-83.4704400000,42.3701048000,-83.47044,42.3701
2297070244,2303,cafe,The Day Dream Café,-83.5004895000,42.2688866000,-83.50049,42.26889
2948729505,2303,cafe,Starbucks,-83.4697888000,42.3697066000,-83.46979,42.36971
3125106695,2303,cafe,Biggby Coffee,-83.4834519000,42.3949151000,-83.48345,42.39492
3871665173,2501,supermarket,Montroy's Market,-83.4459396000,42.2645235000,-83.44594,42.26452
4124433590,2303,cafe,Tim Hortons,-83.4882387000,42.2709214000,-83.48824,42.27092
5832400800,2501,supermarket,Bombay Grocers,-83.4889868000,42.3225289000,-83.48899,42.32253
5838567886,2012,community_centre,Building Bridges Therapy Center,-83.4987017000,42.3882373000,-83.4987,42.38824
6352166066,2303,cafe,Bistro Cafe,-83.5134246000,42.2367991000,-83.51342,42.2368
6566668842,2303,cafe,Starbucks,-83.4844180000,42.2237071000,-83.48442,42.22371
6703668648,2501,supermarket,Kroger,-83.4895957000,42.2737968000,-83.4896,42.2738
6753781437,2082,school,Ivywood Classical Academy,-83.5155143000,42.3861970000,-83.51551,42.3862
6784199770,2082,school,New School High,-83.4977460000,42.3584884000,-83.49775,42.35849
353939616,2082,school,Hoffman Junior High School,-83.5327137000,42.1153197000,-83.53271,42.11532
353978752,2082,school,Sumpter School,-83.4802127000,42.1311527000,-83.48021,42.13115
354025615,2082,school,Saint Anthony Academy,-83.4904893000,42.2034039000,-83.49049,42.2034
354027603,2082,school,Metro Baptist School,-83.4937000000,42.2205000000,-83.4937,42.2205
3528807338,2303,cafe,Starbucks,-83.4340103000,42.4330552000,-83.43401,42.43306
353922522,2082,school,Courville School,-83.0807566000,42.4267034000,-83.08076,42.4267
353928739,2082,school,Dwyer School,-83.0744907000,42.3943872000,-83.07449,42.39439
353940085,2082,school,Holy Name School,-83.0218654000,42.4175371000,-83.02187,42.41754
353941956,2082,school,Immaculate Conception School,-83.0599222000,42.4042038000,-83.05992,42.4042
353965343,2082,school,Saint Augustine School,-83.0563970000,42.4167150000,-83.0564,42.41672
353971925,2082,school,Santa Maria School,-83.0732354000,42.3948072000,-83.07324,42.39481
354013834,2082,school,Davis AerospaceTechnical High School,-83.0179000000,42.4041000000,-83.0179,42.4041
354013956,2082,school,Cornerstone School and Nevada Primary School,-83.0320000000,42.4266000000,-83.032,42.4266
354013988,2082,school,Cornerstone Nevada Middle School,-83.0320000000,42.4266000000,-83.032,42.4266
354021338,2082,school,Timbuktu Academy of Science and Technology,-83.0222000000,42.4170000000,-83.0222,42.417
354021630,2082,school,Early Childhood Elementary School,-83.0601131000,42.4041526000,-83.06011,42.40415
354023006,2082,school,Horizon Alternative High School,-83.0570000000,42.4010000000,-83.057,42.401
354023660,2082,school,Carl T Rowan Community Elementary School,-83.0222000000,42.4174000000,-83.0222,42.4174
354027502,2082,school,Oakland International Academy Elementary School,-83.0407662000,42.3908289000,-83.04077,42.39083
354029058,2082,school,M L Winans Academy of Performing Arts,-83.0253000000,42.4267000000,-83.0253,42.4267
354029229,2082,school,Marvin L Winans Academy of Performing Arts,-83.0263000000,42.4266000000,-83.0263,42.4266
3685625573,2303,cafe,Cafe 1923,-83.0600496000,42.3918663000,-83.06005,42.39187
4944146521,2303,cafe,Boostan Cafe,-83.0487125000,42.3964096000,-83.04871,42.39641
4944146522,2303,cafe,Oloman Cafe,-83.0593487000,42.3986268000,-83.05935,42.39863
6757304154,2082,school,Oakland International Academy - K-1,-83.0392301000,42.3908551000,-83.03923,42.39086
6831775716,2303,cafe,Living Zen Organics,-83.0600967000,42.4024849000,-83.0601,42.40248
7626676717,2501,supermarket,Aldi,-83.1012904000,42.4098475000,-83.10129,42.40985
7626676719,2303,cafe,Tim Hortons,-83.1006199000,42.4097822000,-83.10062,42.40978
353930489,2082,school,Fairbanks School,-83.0843670000,42.3719818000,-83.08437,42.37198
353964903,2082,school,Saint Agnes School,-83.0938118000,42.3664264000,-83.09381,42.36643
354014336,2082,school,New Center Academy,-83.0872000000,42.3863000000,-83.0872,42.3863
354022323,2082,school,George Crockett Academy,-83.0868000000,42.3489000000,-83.0868,42.3489
4382514731,2303,cafe,Bella's Coffee House,-83.1062029000,42.3202048000,-83.1062,42.3202
5383605687,2501,supermarket,Family Foods Superstore,-83.0979365000,42.3719268000,-83.09794,42.37193
6779363657,2082,school,Covenant House Academy Southwest,-83.0853564000,42.3208429000,-83.08536,42.32084
353922537,2082,school,Couzens School,-83.0675475000,42.3440474000,-83.06755,42.34405
353960392,2082,school,Palmer Institute,-83.0663107000,42.3619820000,-83.06631,42.36198
354014314,2082,school,Cultural Center Early Learning Center,-83.0596510000,42.3446083000,-83.05965,42.34461
354020199,2082,school,Schools Center Annex,-83.0651747000,42.3572377000,-83.06517,42.35724
354023473,2082,school,Call Together Day Care Center,-83.0625201000,42.3555192000,-83.06252,42.35552
1674857212,2110,hospital,Detroit Medical Center,-83.0555578000,42.3516406000,-83.05556,42.35164
2760041256,2303,cafe,Starbucks,-83.0576441000,42.3478428000,-83.05764,42.34784
3281439557,2303,cafe,The Bottom Line Coffee House,-83.0691403000,42.3514195000,-83.06914,42.35142
3633669166,2303,cafe,Great Lakes Roasting Company,-83.0601644000,42.3503889000,-83.06016,42.35039
4119748263,2303,cafe,Starbucks,-83.0709067000,42.3584583000,-83.07091,42.35846
5573696121,2110,hospital,Hutzel Women's Hospital,-83.0559754000,42.3513370000,-83.05598,42.35134
5573696122,2110,hospital,Harper University Hospital,-83.0563402000,42.3518979000,-83.05634,42.3519
5573696123,2110,hospital,Karmanos Cancer Center,-83.0567586000,42.3523320000,-83.05676,42.35233
5907305172,2110,hospital,Hudson-Webber Cancer Research Building,-83.0567106000,42.3527905000,-83.05671,42.35279
5907305173,2110,hospital,Harper Professional Building,-83.0573458000,42.3528114000,-83.05735,42.35281
5907305249,2110,hospital,Rehabilitation Institute of Michigan,-83.0557900000,42.3495830000,-83.05579,42.34958
5917156446,2110,hospital,DMC Heart Hospital,-83.0535743000,42.3501987000,-83.05357,42.3502
5922816018,2303,cafe,Hannan Cafe,-83.0631873000,42.3556820000,-83.06319,42.35568
6739780299,2082,school,University Prep Science & Math Middle School,-83.0622768000,42.3590139000,-83.06228,42.35901
7603362867,2303,cafe,New Order Coffee,-83.0559961000,42.3450051000,-83.056,42.34501
7629440001,2303,cafe,Awake Cafe,-83.0681502000,42.3496275000,-83.06815,42.34963
353917764,2082,school,Cadillac School,-83.2643734000,42.1636518000,-83.26437,42.16365
353923455,2082,school,Crowley School,-83.1974258000,42.2369833000,-83.19743,42.23698
353925106,2082,school,Davidson Junior High School,-83.1946481000,42.1933734000,-83.19465,42.19337
353933624,2082,school,Gerisch School,-83.2093709000,42.2175394000,-83.20937,42.21754
353934494,2082,school,Good Shepherd School,-83.1860365000,42.2305947000,-83.18604,42.23059
353936482,2082,school,Hamilton School,-83.1857587000,42.2247615000,-83.18576,42.22476
353941844,2082,school,Huntington School,-83.2046487000,42.1789293000,-83.20465,42.17893
353947307,2082,school,LeBlanc School,-83.1979815000,42.2289281000,-83.19798,42.22893
353953378,2082,school,Monroe School,-83.2496503000,42.2447608000,-83.24965,42.24476
353965944,2082,school,Saint Francis Cabrini High School,-83.2099264000,42.2419832000,-83.20993,42.24198
353966738,2082,school,Saint Francis School,-83.2110375000,42.2439276000,-83.21104,42.24393
353967425,2082,school,Saint Johns School,-83.2673879000,42.2108465000,-83.26739,42.21085
353970536,2082,school,Saint Pius School,-83.1962581000,42.2053401000,-83.19626,42.20534
353971494,2082,school,Sandhill School,-83.2321498000,42.1869845000,-83.23215,42.18698
353972885,2082,school,Seitz Junior High School,-83.2046487000,42.1775404000,-83.20465,42.17754
353975457,2082,school,Allen Park Middle School,-83.2035372000,42.2436499000,-83.20354,42.24365
353979152,2082,school,Taylor Center School,-83.2640953000,42.2317056000,-83.2641,42.23171
354014137,2082,school,Creative Montessori Academy,-83.2078569000,42.2143402000,-83.20786,42.21434
354021194,2082,school,Taylor Center Baptist Academy,-83.2644000000,42.2267000000,-83.2644,42.2267
354021371,2082,school,Trillium Academy,-83.2544000000,42.2088000000,-83.2544,42.2088
354022853,2082,school,Allen Park Community School,-83.2038000000,42.2397000000,-83.2038,42.2397
354023382,2082,school,Baptist Park School,-83.2685000000,42.2147000000,-83.2685,42.2147
1496795589,2402,motel,Red Roof Inn - Taylor,-83.2425402000,42.1998351000,-83.24254,42.19984
1656749550,2501,supermarket,Trentwood Farms,-83.2284129000,42.2269002000,-83.22841,42.2269
2296356268,2303,cafe,Tim Hortons,-83.2193852000,42.2140325000,-83.21939,42.21403
2296381951,2402,motel,Motel 6,-83.2262121000,42.2118404000,-83.22621,42.21184
6348547749,2303,cafe,Starbucks,-83.1904410000,42.1840811000,-83.19044,42.18408
6483243092,2303,cafe,Iliria Coffee,-83.2142389000,42.1956865000,-83.21424,42.19569
6483243154,2303,cafe,Biggby Coffee,-83.2199102000,42.1908453000,-83.21991,42.19085
6780956328,2082,school,Taylor Virtual Learning Academy,-83.2781267000,42.2381690000,-83.27813,42.23817
6780956329,2082,school,Career and Technical Center,-83.2781857000,42.2375733000,-83.27819,42.23757
7009876132,2303,cafe,Fresh Bean Coffee Co.,-83.2244924000,42.1984137000,-83.22449,42.19841
7046886509,2084,college,Ross,-83.2504177000,42.1948258000,-83.25042,42.19483
7061306569,2303,cafe,Starbucks,-83.2604817000,42.1984286000,-83.26048,42.19843
7581353170,2402,motel,Hollywood Motel,-83.1985303000,42.2101036000,-83.19853,42.2101
7590195556,2303,cafe,My Cup of Joe,-83.1863386000,42.2140395000,-83.18634,42.21404
353917645,2082,school,Burt School,-83.2446512000,42.4064253000,-83.24465,42.40643
353965662,2082,school,Saint Christine School,-83.2615962000,42.4005920000,-83.2616,42.40059
353987329,2082,school,Yost School,-83.2836947000,42.4077481000,-83.28369,42.40775
354013597,2082,school,Muhammad University of Islam,-83.1591000000,42.3992000000,-83.1591,42.3992
354013906,2082,school,Dexter Career Center,-83.1900000000,42.4011000000,-83.19,42.4011
354021645,2082,school,E T Clark Academy,-83.1662000000,42.4102000000,-83.1662,42.4102
354021737,2082,school,Far West Alternative Middle School,-83.2613000000,42.4010000000,-83.2613,42.401
354022641,2082,school,Blackwell Christian Academy,-83.2139000000,42.4159000000,-83.2139,42.4159
354022645,2082,school,Here's Hope Christian School,-83.2382000000,42.4299000000,-83.2382,42.4299
354023277,2082,school,Art 'n Dot Nursery and Kindergarten Place,-83.1700000000,42.4111000000,-83.17,42.4111
354025342,2082,school,Puritan Attendance Center,-83.1845000000,42.4089000000,-83.1845,42.4089
354025347,2082,school,Professional Development Academy,-83.1900000000,42.4191000000,-83.19,42.4191
354026724,2082,school,Morris Child Development Center,-83.1602000000,42.4233000000,-83.1602,42.4233
354026943,2082,school,Morris Child Development Center,-83.1603000000,42.4229000000,-83.1603,42.4229
354027856,2082,school,Northwest Detroit Cooperative School,-83.2482000000,42.4139000000,-83.2482,42.4139
354028831,2082,school,Lycee' Internationale,-83.1746000000,42.4220000000,-83.1746,42.422
354029598,2082,school,Langston Hughes Academy,-83.2180000000,42.4134000000,-83.218,42.4134
367813622,2083,kindergarten,Hampton Church Child Care Center,-83.1940300000,42.4017823000,-83.19403,42.40178
3353358716,2303,cafe,Always Brewing Detroit,-83.2301329000,42.4057657000,-83.23013,42.40577
5879864830,2501,supermarket,Glory Super Market,-83.2764903000,42.4299906000,-83.27649,42.42999
5918972091,2303,cafe,Motor City Java House,-83.2575140000,42.4169027000,-83.25751,42.4169
6019718632,2501,supermarket,Liberty Food Center,-83.1679714000,42.4169834000,-83.16797,42.41698
6096411276,2501,supermarket,Banner Supermarket,-83.1777804000,42.3944825000,-83.17778,42.39448
6759296972,2083,kindergarten,Old Redford Pre-Kindergarten Academy,-83.2599017000,42.4161655000,-83.2599,42.41617
2390716704,2303,cafe,Astro Coffee,-83.0757112000,42.3315907000,-83.07571,42.33159
3751807519,2303,cafe,Anthology Coffee,-83.0705174000,42.3254598000,-83.07052,42.32546
6779497684,2082,school,Escuela Avancemos,-83.0762878000,42.3209133000,-83.07629,42.32091
7089744848,2303,cafe,Lucky Detroit,-83.0736829000,42.3316600000,-83.07368,42.33166
353941972,2082,school,Immaculate Conception School,-83.0358480000,42.3791790000,-83.03585,42.37918
353960375,2082,school,Parke School,-83.0381869000,42.3783548000,-83.03819,42.37835
353961983,2082,school,Ralph Bunche School,-83.0215867000,42.3550379000,-83.02159,42.35504
353964931,2082,school,Saint Alberts School,-83.0426987000,42.3594821000,-83.0427,42.35948
353966122,2082,school,Saint Elizabeth School,-83.0326983000,42.3628155000,-83.0327,42.36282
353966365,2082,school,Saint Hyacinth School,-83.0368652000,42.3692043000,-83.03687,42.3692
353967887,2082,school,Saint Johns School,-83.0369209000,42.3788144000,-83.03692,42.37881
353984318,2082,school,Williams School,-83.0285315000,42.3647599000,-83.02853,42.36476
354015259,2082,school,Trombly Adult Day High School (former),-83.0229000000,42.3866000000,-83.0229,42.3866
354021559,2082,school,Eastside Vicariate School,-83.0321000000,42.3630000000,-83.0321,42.363
354021660,2082,school,East Catholic Elementary,-83.0325000000,42.3626000000,-83.0325,42.3626
354025824,2082,school,Ross Hill Academy,-83.0255000000,42.3565000000,-83.0255,42.3565
354025830,2082,school,Ross Hill Academy,-83.0248000000,42.3568000000,-83.0248,42.3568
354027872,2082,school,People's Baptist Christian School,-83.0271000000,42.3550000000,-83.0271,42.355
354027883,2082,school,People's Baptist Christian School,-83.0273893000,42.3548995000,-83.02739,42.3549
3872026700,2014,arts_centre,ArtLab J,-83.0382872000,42.3432947000,-83.03829,42.34329
4121692994,2303,cafe,Germack,-83.0405233000,42.3461685000,-83.04052,42.34617
5091747022,2082,school,The James and Grace Lee Boggs School,-83.0331301000,42.3610813000,-83.03313,42.36108
5111341521,2303,cafe,People s record,-83.0376131000,42.3444818000,-83.03761,42.34448
5917108972,2012,community_centre,Coleman A. Young Community Center,-83.0247413000,42.3462214000,-83.02474,42.34622
5917390697,2501,supermarket,Family Fair Marketplace,-83.0232337000,42.3408188000,-83.02323,42.34082
6897368485,2303,cafe,Anthology Coffee,-83.0362266000,42.3488093000,-83.03623,42.34881
7089752210,2303,cafe,Cairo Coffee,-83.0394974000,42.3480988000,-83.0395,42.3481
354019929,2082,school,Yake Elementary School,-83.2207000000,42.1479000000,-83.2207,42.1479
6356594539,2501,supermarket,King Food Mart,-83.2671501000,42.1538368000,-83.26715,42.15384
7740647577,2084,college,Dorsey Schools,-83.2239941000,42.1422447000,-83.22399,42.14224
2321303069,2501,supermarket,Kroger,-83.3817526000,42.4394393000,-83.38175,42.43944
353939299,2082,school,Holbrook School,-83.0540406000,42.3872561000,-83.05404,42.38726
353958842,2082,school,Detroit International Academy,-83.0805383000,42.3829580000,-83.08054,42.38296
353960414,2082,school,Palmer School (Demolished),-83.0670522000,42.3738577000,-83.06705,42.37386
354019880,2082,school,Y Gladys Barsamian Preparatory Center,-83.0770000000,42.3723000000,-83.077,42.3723
354021747,2082,school,Family Place Head Start,-83.0792000000,42.3802000000,-83.0792,42.3802
354022443,2082,school,God's Way Academy,-83.0690000000,42.3695000000,-83.069,42.3695
354025795,2082,school,Ross Hill Junior Academy,-83.0663000000,42.3665000000,-83.0663,42.3665
354027896,2082,school,Northern Annex,-83.0816000000,42.3819000000,-83.0816,42.3819
4057302961,2303,cafe,Avalon Cafe,-83.0772905000,42.3684753000,-83.07729,42.36848
5311493708,2303,cafe,Tim Hortons,-83.0747778000,42.3678378000,-83.07478,42.36784
5346084613,2303,cafe,Stella Good Coffee,-83.0770787000,42.3698060000,-83.07708,42.36981
6739122489,2082,school,University Preparatory Academy Elementary School – Mark Murray Campus,-83.0726791000,42.3655972000,-83.07268,42.3656
353931323,2082,school,Ferry Junior High School,-82.8846370000,42.4442034000,-82.88464,42.4442
353937843,2082,school,Harper Woods High School,-82.9345630000,42.4440496000,-82.93456,42.44405
353961666,2082,school,Poupard Elementary School,-82.9191670000,42.4446655000,-82.91917,42.44467
353970653,2082,school,Saint Peters School,-82.9257503000,42.4489256000,-82.92575,42.44893
353970888,2082,school,Saint Jude School,-82.9576962000,42.4361480000,-82.9577,42.43615
354021575,2082,school,Eastside Nursery School,-82.9701000000,42.4477000000,-82.9701,42.4477
354022829,2082,school,HEART Academy,-82.9273000000,42.4494000000,-82.9273,42.4494
354023133,2082,school,Ferry Elementary School,-82.8854000000,42.4438000000,-82.8854,42.4438
3128685275,2501,supermarket,Kroger,-82.9069973000,42.4391889000,-82.907,42.43919
5796160556,2303,cafe,Lape Soul Food,-82.9643075000,42.4351646000,-82.96431,42.43516
5799384918,2501,supermarket,Aldi,-82.9702561000,42.4487756000,-82.97026,42.44878
5979937976,2402,motel,JZ Motel & Suites,-82.9720083000,42.4493032000,-82.97201,42.4493
353932334,2082,school,Fox School,-83.2160393000,42.4394804000,-83.21604,42.43948
354014476,2082,school,Chandler Park Academy-Greenfield,-83.1989000000,42.4337000000,-83.1989,42.4337
354021096,2082,school,Saint Timothy Lutheran School,-83.2390000000,42.4332000000,-83.239,42.4332
354021601,2082,school,Emma Fox Primary School,-83.2153000000,42.4394000000,-83.2153,42.4394
6270502488,2501,supermarket,Glory Supermarket,-83.0009387000,42.4480064000,-83.00094,42.44801
353931359,2082,school,Fisher School,-83.2896516000,42.2433719000,-83.28965,42.24337
353936767,2082,school,Hand School,-83.3052079000,42.1658740000,-83.30521,42.16587
353937303,2082,school,Harrison School,-83.3157637000,42.1978176000,-83.31576,42.19782
353980942,2082,school,Texas School,-83.3165970000,42.2242058000,-83.3166,42.22421
354019766,2082,school,Summit Academy North,-83.3198000000,42.1667000000,-83.3198,42.1667
354023678,2082,school,Brownstown Middle School,-83.3055000000,42.1587000000,-83.3055,42.1587
354027355,2082,school,Oakwood Academy,-83.2950000000,42.2256000000,-83.295,42.2256
354027538,2082,school,Michigan Automotive Academy,-83.3197000000,42.2101000000,-83.3197,42.2101
354027548,2082,school,Michigan Automotive Academy,-83.3197000000,42.2101000000,-83.3197,42.2101
1242600193,2402,motel,Quality Inn & Suites,-83.3266693000,42.2349878000,-83.32667,42.23499
1242600215,2402,motel,Super 8,-83.3271119000,42.2329541000,-83.32711,42.23295
1242600219,2402,motel,Days Inn & Suites,-83.3270823000,42.2360164000,-83.32708,42.23602
5481416066,2501,supermarket,Save-A-Lot,-83.3044679000,42.1977924000,-83.30447,42.19779
353960003,2082,school,Our Lady of Victory School,-83.1629820000,42.4442029000,-83.16298,42.4442
353960504,2082,school,Pasteur School,-83.1433896000,42.4377701000,-83.14339,42.43777
353961615,2082,school,Presentation School,-83.1704627000,42.4371879000,-83.17046,42.43719
354020968,2082,school,Salt and Pepper School,-83.1629000000,42.4445000000,-83.1629,42.4445
353915492,2082,school,Barrow School,-83.2060382000,42.0653211000,-83.20604,42.06532
353919152,2082,school,Chapman School,-83.2571515000,42.0778208000,-83.25715,42.07782
353931860,2082,school,Foley School,-83.2149272000,42.1314305000,-83.21493,42.13143
353935934,2082,school,Grosse Ile Junior High School,-83.1388125000,42.1358749000,-83.13881,42.13587
353960447,2082,school,Parsons School,-83.1977044000,42.0936537000,-83.1977,42.09365
353975465,2082,school,South Road School,-83.2243721000,42.1119865000,-83.22437,42.11199
354020327,2082,school,Saint Mary Catholic School,-83.2464000000,42.0708000000,-83.2464,42.0708
354021385,2082,school,Downriver High School,-83.2071000000,42.0664000000,-83.2071,42.0664
354021991,2082,school,Flat Rock Community Building Pre-Kindergarten School,-83.2890000000,42.0957000000,-83.289,42.0957
354022057,2082,school,Frank E Weiss Elementary School,-83.2362719000,42.1142164000,-83.23627,42.11422
354022355,2082,school,Gibraltar Early Child Education Center,-83.2441000000,42.0688000000,-83.2441,42.0688
4650370931,2082,school,Grosse Ile High School,-83.1410563000,42.1350292000,-83.14106,42.13503
5459648994,2303,cafe,Tim Hortons,-83.2468838000,42.1378963000,-83.24688,42.1379
7009866716,2303,cafe,Blue Heron Trading Company,-83.2921359000,42.0949780000,-83.29214,42.09498
1964036673,2303,cafe,Tuscan Cafe,-83.4830619000,42.4319154000,-83.48306,42.43192
2681222875,2083,kindergarten,Little Hearts Learning Home - Child Care and Pre-School,-83.5121570000,42.4211208000,-83.51216,42.42112
7609970934,2303,cafe,My Little Paris,-83.4818676000,42.4313566000,-83.48187,42.43136
353914612,2082,school,Annunciation School,-82.9846405000,42.3603156000,-82.98464,42.36032
353917760,2082,school,Marcus Garvey Academy,-83.0011773000,42.3592391000,-83.00118,42.35924
353919033,2082,school,Chandler School,-83.0043642000,42.3858708000,-83.00436,42.38587
353939321,2082,school,Hillger School,-83.0068642000,42.3758710000,-83.00686,42.37587
353942801,2082,school,Hutchinson School,-82.9918637000,42.3875375000,-82.99186,42.38754
353948791,2082,school,Monteith School,-82.9885296000,42.3575379000,-82.98853,42.35754
353965932,2082,school,Saint Bernard School,-82.9818629000,42.3783709000,-82.98186,42.37837
353966483,2082,school,Saint Ignatius School,-82.9829746000,42.4017040000,-82.98297,42.4017
353967961,2082,school,Saint Joseph High School,-83.0079758000,42.3961485000,-83.00798,42.39615
353971359,2082,school,Salem School,-83.0079754000,42.3758710000,-83.00798,42.37587
353977809,2082,school,Stephens School,-83.0135313000,42.3869819000,-83.01353,42.38698
353984416,2082,school,Wilkins School,-82.9943644000,42.4197593000,-82.99436,42.41976
354014467,2082,school,Chandler Building School,-83.0044000000,42.3854000000,-83.0044,42.3854
354015264,2082,school,Trombly Alternative High School,-82.9885285000,42.3578229000,-82.98853,42.35782
354021543,2082,school,Eastside Early Learning Center,-83.0018000000,42.3909000000,-83.0018,42.3909
354021589,2082,school,Timbuktu Academy of Science and Technology,-83.0043000000,42.3937000000,-83.0043,42.3937
354022283,2082,school,Garvey Academy,-83.0108000000,42.3680000000,-83.0108,42.368
354022628,2082,school,Blackwell Adult Education Center,-83.0021000000,42.3913000000,-83.0021,42.3913
354022633,2082,school,Blanche Kelso Bruce Academy,-82.9829000000,42.3927000000,-82.9829,42.3927
354022638,2082,school,Blanche Kelso Bruce Academy at Conner,-82.9829000000,42.3927000000,-82.9829,42.3927
354023038,2082,school,Academy of Excellence,-83.0038000000,42.4197000000,-83.0038,42.4197
354023151,2082,school,Benjamin E Mays Male Academy,-83.0012000000,42.3685000000,-83.0012,42.3685
354028595,2082,school,Julia Ward Howe Elementary School,-82.9884000000,42.3579000000,-82.9884,42.3579
3308360566,2303,cafe,The Red Hook Detroit,-82.9971851000,42.3551662000,-82.99719,42.35517
5917176541,2501,supermarket,Harbortown Market,-83.0111776000,42.3425132000,-83.01118,42.34251
5917182848,2303,cafe,Tim Hortons,-83.0017388000,42.3476133000,-83.00174,42.34761
5994183272,2012,community_centre,Solanus Casey Center,-83.0144928000,42.3522169000,-83.01449,42.35222
5996085376,2012,community_centre,Eastside Community Outreach,-82.9836996000,42.3649654000,-82.9837,42.36497
7215491193,2501,supermarket,Grocery Outlet,-83.0055125000,42.4197009000,-83.00551,42.4197
7829805225,2501,supermarket,Thrifty Scot,-82.9839026000,42.3993445000,-82.9839,42.39934
7829805231,2402,motel,Cabana Motel,-82.9806286000,42.4001287000,-82.98063,42.40013
353915470,2082,school,Barnes School,-82.8890813000,42.4264258000,-82.88908,42.42643
353916243,2082,school,Bethany School,-82.9488062000,42.4058705000,-82.94881,42.40587
353917366,2082,school,Brownell Junior High School,-82.9076929000,42.4092038000,-82.90769,42.4092
353918041,2082,school,Carstens School,-82.9550447000,42.3807020000,-82.95504,42.3807
353936466,2082,school,Hamilton School,-82.9629735000,42.3983706000,-82.96297,42.39837
353947630,2082,school,Lingemann School,-82.9735288000,42.3608711000,-82.97353,42.36087
353948803,2082,school,Montefalco School,-82.9301937000,42.3905930000,-82.93019,42.39059
353954653,2082,school,Mount Calvary School,-82.9746413000,42.4275370000,-82.97464,42.42754
353959985,2082,school,Our Lady Star of the Sea School,-82.8896199000,42.4239512000,-82.88962,42.42395
353960906,2082,school,Peace School,-82.9451947000,42.4000373000,-82.94519,42.40004
353965938,2082,school,Saint Brendans School,-82.9460286000,42.4247592000,-82.94603,42.42476
353970168,2082,school,Saint Paul Catholic School,-82.8949140000,42.3950372000,-82.89491,42.39504
353970520,2082,school,Saint Philip Neri School,-82.9579728000,42.3797597000,-82.95797,42.37976
353970554,2082,school,Saint Philomena School,-82.9182380000,42.4041193000,-82.91824,42.40412
353972894,2082,school,Servite High School,-82.9632511000,42.3930930000,-82.96325,42.39309
353977359,2082,school,Stellwagen School,-82.9482505000,42.4047594000,-82.94825,42.40476
353981259,2082,school,Tyrone School,-82.9205363000,42.4293981000,-82.92054,42.4294
354013912,2082,school,Detroit School of Industrial Arts,-82.9459000000,42.4245000000,-82.9459,42.4245
354013940,2082,school,Chandler Park Academy-Philip,-82.9419000000,42.3733000000,-82.9419,42.3733
354014472,2082,school,Chandler Park Academy-Haverhill,-82.9431000000,42.4009000000,-82.9431,42.4009
354015342,2082,school,Victors' Center,-82.9403000000,42.3766000000,-82.9403,42.3766
354019848,2082,school,Wolverine School,-82.9575000000,42.3794000000,-82.9575,42.3794
354020873,2082,school,Stellwagen Early Learning Center,-82.9481000000,42.4046000000,-82.9481,42.4046
354022361,2082,school,Giving Tree Montessori School,-82.9179465000,42.4036392000,-82.91795,42.40364
354025604,2082,school,Saint Clare of Montefalco School,-82.9293000000,42.3907000000,-82.9293,42.3907
354025803,2082,school,Ronald Brown Academy,-82.9473000000,42.4043000000,-82.9473,42.4043
354025913,2082,school,Saint Jude's Home for Boys,-82.9640000000,42.4226000000,-82.964,42.4226
1472211956,2501,supermarket,Family Foods,-82.9259564000,42.4265274000,-82.92596,42.42653
4175637258,2501,supermarket,Save-A-Lot,-82.9728123000,42.3872246000,-82.97281,42.38722
5256432107,2303,cafe,Starbucks,-82.9161051000,42.4058610000,-82.91611,42.40586
5423723144,2012,community_centre,Bhaktivedanta Cultural Center,-82.9463022000,42.3617777000,-82.9463,42.36178
5917135393,2501,supermarket,Aldi,-82.9489704000,42.3861588000,-82.94897,42.38616
5917185744,2501,supermarket,Parkway Foods,-82.9707696000,42.3653054000,-82.97077,42.36531
6359378555,2501,supermarket,Grace Food Market,-82.9518352000,42.4265665000,-82.95184,42.42657
6790655295,2082,school,Pathways Academy,-82.9701917000,42.3655558000,-82.97019,42.36556
7012713781,2501,supermarket,Sprout House,-82.9389390000,42.3821288000,-82.93894,42.38213
354027649,2082,school,Michigan Institute for Construction Trades,-83.0492470000,42.3322808000,-83.04925,42.33228
354028541,2082,school,Jessie C Kennedy Institute,-83.0480000000,42.3311000000,-83.048,42.3311
850894692,2303,cafe,,-83.0319568000,42.3303179000,-83.03196,42.33032
1262468197,2303,cafe,Europa Cafe,-83.0418087000,42.3351162000,-83.04181,42.33512
1263402643,2303,cafe,Blue Star Cafe,-83.0485788000,42.3288771000,-83.04858,42.32888
2983229795,2303,cafe,Starbucks,-83.0472108000,42.3311984000,-83.04721,42.3312
3875115055,2303,cafe,the Broadway,-83.0453671000,42.3343951000,-83.04537,42.3344
3877100869,2303,cafe,Dessert Oasis Coffee Roasters,-83.0489956000,42.3329874000,-83.049,42.33299
4121449547,2303,cafe,Starbucks,-83.0397978000,42.3289907000,-83.0398,42.32899
4320277291,2501,supermarket,City Market Detroit,-83.0420431000,42.3315929000,-83.04204,42.33159
4324447989,2303,cafe,Tim Hortons,-83.0417089000,42.3304761000,-83.04171,42.33048
4701462960,2303,cafe,Roasting Plant,-83.0460042000,42.3312547000,-83.046,42.33125
5948850128,2303,cafe,Avalon Bakery,-83.0479722000,42.3327374000,-83.04797,42.33274
5952706894,2303,cafe,Starbucks,-83.0409056000,42.3357621000,-83.04091,42.33576
5954905195,2303,cafe,The Press Room,-83.0544798000,42.3286398000,-83.05448,42.32864
5958620985,2303,cafe,Hot Taco,-83.0538867000,42.3378896000,-83.05389,42.33789
5961250199,2303,cafe,Press Room,-83.0544471000,42.3284749000,-83.05445,42.32847
5961345266,2303,cafe,La Pecora Nera,-83.0505896000,42.3348343000,-83.05059,42.33483
5965225655,2303,cafe,Cork & Grind,-83.0486548000,42.3273709000,-83.04865,42.32737
353944879,2082,school,Keppen School,-83.1674245000,42.2414278000,-83.16742,42.24143
354019866,2082,school,Wyandotte Catholic Consolidated School,-83.1547000000,42.2026000000,-83.1547,42.2026
6612236657,2303,cafe,Provence Cafe,-83.1500507000,42.2009088000,-83.15005,42.20091
353954907,2082,school,Mount Pleasant School,-83.4216002000,42.2022619000,-83.4216,42.20226
354012348,2082,school,Community Middle and Community High School,-83.4197000000,42.2003000000,-83.4197,42.2003
354023630,2082,school,Carl T Renton Junior High School,-83.3459000000,42.1517000000,-83.3459,42.1517
354025722,2082,school,Romulus Adult Education Alternative School,-83.4196960000,42.2002906000,-83.4197,42.20029
354027568,2082,school,Merriman Elementary School,-83.3457000000,42.1931000000,-83.3457,42.1931
4266027594,2303,cafe,Coffee Beanery,-83.3620740000,42.2029921000,-83.36207,42.20299
6981751507,2303,cafe,Starbucks,-83.3608806000,42.2045399000,-83.36088,42.20454
6981772292,2303,cafe,Illy Coffee & Fountain Bare,-83.3579436000,42.2085523000,-83.35794,42.20855
6981780829,2303,cafe,Starbucks,-83.3625244000,42.2085149000,-83.36252,42.20851
6981790322,2303,cafe,Starbucks,-83.3552862000,42.2119102000,-83.35529,42.21191
353916468,2082,school,Biddle School,-83.1190904000,42.3547597000,-83.11909,42.35476
353916993,2082,school,Brady School,-83.1126490000,42.3724477000,-83.11265,42.37245
353918931,2082,school,Chadsey High School,-83.1369980000,42.3353591000,-83.137,42.33536
353928629,2082,school,River Rouge STEM Academy,-83.1310343000,42.2744829000,-83.13103,42.27448
353929216,2082,school,Ecorse School Number 2,-83.1429790000,42.2514277000,-83.14298,42.25143
353933759,2082,school,Gethsemane School,-83.1104788000,42.3380934000,-83.11048,42.33809
353943108,2082,school,Jamieson School,-83.1088124000,42.3667041000,-83.10881,42.3667
353949391,2082,school,Madonna School,-83.1177021000,42.4005925000,-83.1177,42.40059
353964965,2082,school,Saint Benedict School,-83.1168680000,42.3475376000,-83.11687,42.34754
353967444,2082,school,Saint John Vianney School,-83.1193689000,42.4147589000,-83.11937,42.41476
353971066,2082,school,Saint Stephens School,-83.1343684000,42.3275378000,-83.13437,42.32754
353983646,2082,school,Ann Visger Elementary School,-83.1363390000,42.2644788000,-83.13634,42.26448
353986361,2082,school,Wilson School,-83.1238246000,42.3084361000,-83.12382,42.30844
354013556,2082,school,Muhammad University of Islam,-83.1121000000,42.4113000000,-83.1121,42.4113
354019838,2082,school,Winterhalter Elementary School,-83.1348079000,42.3795623000,-83.13481,42.37956
354020068,2082,school,West Side Alternative High School,-83.1273000000,42.3838000000,-83.1273,42.3838
354025521,2082,school,Puritan Cooperative Nursery,-83.1463000000,42.4101000000,-83.1463,42.4101
354026800,2082,school,Mosque-El Hagg School,-83.1216000000,42.3689000000,-83.1216,42.3689
354028164,2082,school,Our Lady of Guadalupe Middle School,-83.1348000000,42.3273000000,-83.1348,42.3273
354028486,2082,school,Joy Preparatory Academy,-83.1174000000,42.4011000000,-83.1174,42.4011
354029243,2082,school,Mayflower Nursery Play Center,-83.1442000000,42.4241000000,-83.1442,42.4241
4385861606,2082,school,Wayne State University Harris Literacy Program,-83.1326819000,42.3093477000,-83.13268,42.30935
5919030469,2501,supermarket,Prince Valley Supermercado Gigante,-83.1161063000,42.3304471000,-83.11611,42.33045
5983314197,2501,supermarket,Mike's Fresh Market,-83.1426142000,42.4328526000,-83.14261,42.43285
6473006488,2501,supermarket,Value Save Food Center,-83.1379825000,42.3958434000,-83.13798,42.39584
6744692043,2082,school,Voyageur College Prep High School,-83.1185206000,42.3323267000,-83.11852,42.33233
6775370171,2082,school,Hope Academic Academy,-83.1490964000,42.2512104000,-83.1491,42.25121
7089785877,2303,cafe,Detroit Sip,-83.1455994000,42.4173012000,-83.1456,42.4173
7258190468,2501,supermarket,Savon Foods Supermarket,-83.1407171000,42.4233085000,-83.14072,42.42331
7746871985,2303,cafe,Happy’s Pizza,-83.1202048000,42.3317140000,-83.1202,42.33171
354027862,2082,school,Northville Montessori Center,-83.4367000000,42.3989000000,-83.4367,42.3989
354027900,2082,school,North West Wayne Trainable Center,-83.4175000000,42.3889000000,-83.4175,42.3889
3289178579,2303,cafe,Starbucks,-83.3343200000,42.3784691000,-83.33432,42.37847
353913401,2082,school,Adams Junior High School,-83.3688210000,42.2942045000,-83.36882,42.2942
353916423,2082,school,Beverly School,-83.3877104000,42.2594827000,-83.38771,42.25948
353920125,2082,school,Corey School,-83.3840991000,42.2436498000,-83.3841,42.24365
353929625,2082,school,Elliott School,-83.3446536000,42.3005933000,-83.34465,42.30059
353930783,2082,school,Farmington School,-83.3699322000,42.3167041000,-83.36993,42.3167
353934592,2082,school,Gordonier School,-83.3324308000,42.2467053000,-83.33243,42.24671
353936491,2082,school,Hamilton School,-83.3699322000,42.3019821000,-83.36993,42.30198
353938306,2082,school,Hayti-Beverly School,-83.3360420000,42.2597605000,-83.33604,42.25976
353938389,2082,school,Hayes School,-83.3446538000,42.3458703000,-83.34465,42.34587
353940528,2082,school,Hoover School,-83.3785434000,42.2694826000,-83.37854,42.26948
353942727,2082,school,Jackson School,-83.3632652000,42.2750381000,-83.36327,42.27504
353944991,2082,school,Kettering School,-83.3599319000,42.3017044000,-83.35993,42.3017
353947342,2082,school,Lincoln School,-83.3724322000,42.2922600000,-83.37243,42.29226
353958180,2082,school,Norris School,-83.3518760000,42.2955934000,-83.35188,42.29559
353961800,2082,school,Radcliff Junior High School,-83.3760436000,42.3211485000,-83.37604,42.32115
353963934,2082,school,Ruff School,-83.3404870000,42.3333705000,-83.34049,42.33337
353972834,2082,school,Schweitzer School,-83.4010442000,42.2889268000,-83.40104,42.28893
353980587,2082,school,Tinkham School,-83.3657654000,42.3069820000,-83.36577,42.30698
354019673,2082,school,Wayne Memorial High School,-83.3773920000,42.2874978000,-83.37739,42.2875
354019979,2082,school,Wayne-Westland Adult and Community Education Center,-83.3641000000,42.3072000000,-83.3641,42.3072
354021568,2082,school,Tinkham Alternative Education,-83.3640946000,42.3071871000,-83.36409,42.30719
354022528,2082,school,Great Parents Great Start School,-83.3706000000,42.2668000000,-83.3706,42.2668
354025669,2082,school,Romulus Elementary School,-83.3540000000,42.2598000000,-83.354,42.2598
354025808,2082,school,Romulus High School,-83.3879005000,42.2327293000,-83.3879,42.23273
726237829,2303,cafe,Starbucks,-83.4009800000,42.3372850000,-83.40098,42.33728
3686560443,2501,supermarket,Fresh Choice Food Center,-83.3888120000,42.2802374000,-83.38881,42.28024
5907286185,2303,cafe,Starbucks,-83.3498269000,42.2241810000,-83.34983,42.22418
5939723393,2303,cafe,Coffee Beanery,-83.3507828000,42.2227420000,-83.35078,42.22274
5952846064,2303,cafe,Coffee Beanery,-83.3469911000,42.2280039000,-83.34699,42.228
5952846067,2303,cafe,Le Petit Betio Bistro,-83.3478038000,42.2269007000,-83.3478,42.2269
5952846385,2303,cafe,Coffee Beanery,-83.3486876000,42.2257278000,-83.34869,42.22573
7012727750,2501,supermarket,Zerbos Health Foods,-83.3809007000,42.3685516000,-83.3809,42.36855
7012915567,2303,cafe,Karma Coffee & Kitchen,-83.3905955000,42.2829094000,-83.3906,42.28291
7472289928,2303,cafe,Coffee & Cream,-83.4199657000,42.3531356000,-83.41997,42.35314
353931297,2082,school,Finlay School,-83.1835365000,42.2680940000,-83.18354,42.26809
353944353,2082,school,Kaier School,-83.1806430000,42.2865308000,-83.18064,42.28653
353945557,2082,school,Lafayette School,-83.1777028000,42.2572608000,-83.1777,42.25726
353949316,2082,school,Mackenzie High School,-83.1590921000,42.3630929000,-83.15909,42.36309
353959104,2082,school,Oakman School,-83.1710371000,42.3764259000,-83.17104,42.37643
353961855,2082,school,Quandt School,-83.1921479000,42.2667051000,-83.19215,42.26671
353961976,2082,school,Raupp School,-83.1646466000,42.2519831000,-83.16465,42.25198
353965088,2082,school,Saint Barbaras School,-83.1753314000,42.3260383000,-83.17533,42.32604
353965608,2082,school,Saint Clement School,-83.1846482000,42.3261488000,-83.18465,42.32615
353966257,2082,school,Saint Henry School,-83.1699247000,42.2619830000,-83.16992,42.26198
353968235,2082,school,Saint Luke School,-83.1532583000,42.3530930000,-83.15326,42.35309
353969149,2082,school,Saint Mary School,-83.1965927000,42.2744827000,-83.19659,42.27448
353971073,2082,school,Saint Stephens School,-83.1913146000,42.2694828000,-83.19131,42.26948
354013944,2082,school,Charles R Drew Attendence Center,-83.1567000000,42.3666000000,-83.1567,42.3666
354020131,2082,school,School-to-Work Academy,-83.1661000000,42.3442000000,-83.1661,42.3442
354022999,2082,school,Academy for Business and Technology Elementary School,-83.1749918000,42.3262425000,-83.17499,42.32624
354025871,2082,school,Rosa Parks Academy,-83.1572000000,42.3640000000,-83.1572,42.364
354027618,2082,school,Montessori Children's Center,-83.1925000000,42.2698000000,-83.1925,42.2698
354028552,2082,school,Joan Ann Bullock Academy,-83.1929000000,42.3658000000,-83.1929,42.3658
354029007,2082,school,Iris Becker Elementary School,-83.1661000000,42.3405000000,-83.1661,42.3405
354029339,2082,school,McFarlane Elementary School,-83.1733813000,42.3596695000,-83.17338,42.35967
1727279841,2501,supermarket,Greenland Market,-83.1936636000,42.3433900000,-83.19366,42.34339
2379647010,2303,cafe,Tim Hortons,-83.1883856000,42.3086569000,-83.18839,42.30866
4497330682,2303,cafe,Shatila Bakery,-83.1831974000,42.3440997000,-83.1832,42.3441
5285414221,2303,cafe,Biggby Coffee,-83.1887028000,42.3068969000,-83.1887,42.3069
5964664877,2303,cafe,Qahwah House,-83.1768624000,42.3400170000,-83.17686,42.34002
6082608436,2501,supermarket,Food Giant,-83.1973790000,42.3891366000,-83.19738,42.38914
6402996174,2501,supermarket,Lance's Hometown Supermarket,-83.1573525000,42.3586800000,-83.15735,42.35868
6815019645,2303,cafe,Starbucks,-83.1688722000,42.3238243000,-83.16887,42.32382
7612951314,2501,supermarket,Grand Price Supermarket,-83.1713242000,42.3814303000,-83.17132,42.38143
353914868,2082,school,Ashcroft School,-83.3099307000,42.3628146000,-83.30993,42.36281
353960335,2082,school,Parkway School,-83.3029860000,42.3536481000,-83.30299,42.35365
353961132,2082,school,Saint John Boscos School,-83.2943747000,42.3747589000,-83.29437,42.37476
353965736,2082,school,Saint Christopher School,-83.2068715000,42.3497595000,-83.20687,42.34976
353970443,2082,school,Saint Robert Bellarmine School,-83.3121529000,42.3614257000,-83.31215,42.36143
354020284,2082,school,Saint Sabina Catholic School,-83.2886977000,42.3499476000,-83.2887,42.34995
354021711,2082,school,Elementary Day Treatment at Ashcroft,-83.3087000000,42.3627000000,-83.3087,42.3627
354021726,2082,school,Far West Early Learning Center,-83.2706590000,42.3850040000,-83.27066,42.385
354025773,2082,school,Hosanna Tabor Lutheran School,-83.3032000000,42.3635000000,-83.3032,42.3635
354029022,2082,school,J A Caldwell Baptist School,-83.2118000000,42.3856000000,-83.2118,42.3856
367815639,2012,community_centre,Redford Community Center,-83.3050000000,42.3710000000,-83.305,42.371
3237420386,2082,school,Detroit Innovation Academy,-83.2184551000,42.3707618000,-83.21846,42.37076
3337201585,2082,school,Academy of Public Leadership,-83.2212134000,42.3608873000,-83.22121,42.36089
3337201586,2082,school,Detroit Institute of Technology,-83.2208509000,42.3597922000,-83.22085,42.35979
3337201587,2082,school,Medicine & Community Health Academy,-83.2219223000,42.3608458000,-83.22192,42.36085
3451838546,2501,supermarket,Save a Lot Food Store,-83.2400998000,42.3715882000,-83.2401,42.37159
6507806185,2501,supermarket,Saturn Super Foods,-83.2390615000,42.3572005000,-83.23906,42.3572
7256247908,2083,kindergarten,New West Side Head Start,-83.2355631000,42.3649046000,-83.23556,42.3649
7383621368,2501,supermarket,Kroger,-83.2764303000,42.3623014000,-83.27643,42.3623
301227236,2303,cafe,,-83.2736708000,42.3013769000,-83.27367,42.30138
353914578,2082,school,Annapolis High School,-83.2471503000,42.2758714000,-83.24715,42.27587
353916167,2082,school,Berwyn School,-83.2974301000,42.3367039000,-83.29743,42.3367
353917017,2082,school,Brainard School,-83.2865964000,42.3275374000,-83.2866,42.32754
353917026,2082,school,Bryant Junior High School,-83.2740960000,42.3153153000,-83.2741,42.31532
353919309,2082,school,Cherry Hill High School,-83.3218751000,42.3050377000,-83.32188,42.30504
353920210,2082,school,Clark School,-83.2832629000,42.3233707000,-83.28326,42.32337
353927926,2082,school,Douglas School,-83.3135414000,42.2797602000,-83.31354,42.27976
353928712,2082,school,Duvall School,-83.2504840000,42.3003156000,-83.25048,42.30032
353929329,2082,school,Edison School,-83.2885405000,42.2578161000,-83.28854,42.25782
353930364,2082,school,Fairlane School,-83.2779846000,42.2519828000,-83.27798,42.25198
353931045,2082,school,Federal School,-83.3068744000,42.2722603000,-83.30687,42.27226
353939226,2082,school,Highview School,-83.2854854000,42.3369816000,-83.28549,42.33698
353942172,2082,school,Emmanuel Lutheran School,-83.2526895000,42.3062904000,-83.25269,42.30629
353947753,2082,school,Lindbergh School,-83.2699291000,42.3150375000,-83.26993,42.31504
353949227,2082,school,Madison School,-83.2657620000,42.2739270000,-83.26576,42.27393
353961068,2082,school,Pine School,-83.2638174000,42.2542051000,-83.26382,42.25421
353961471,2082,school,Polk School,-83.2393722000,42.2758714000,-83.23937,42.27587
353963035,2082,school,Roosevelt School,-83.2885406000,42.2855935000,-83.28854,42.28559
353964736,2082,school,Saint Cyril of Jerusalem School,-83.2335385000,42.2617050000,-83.23354,42.2617
353966211,2082,school,Tipton Academy,-83.3141107000,42.3216992000,-83.31411,42.3217
353966859,2082,school,Saint John School,-83.2938185000,42.2742048000,-83.29382,42.2742
353967186,2082,school,Saint Anselm School,-83.2632623000,42.3297596000,-83.26326,42.32976
353969214,2082,school,Saint Linus School,-83.2896521000,42.3344817000,-83.28965,42.33448
353978222,2082,school,Sudman School (former),-83.2260382000,42.2592051000,-83.22604,42.25921
353979817,2082,school,Thorne School,-83.2838182000,42.2747603000,-83.28382,42.27476
353980810,2082,school,Treadwell School,-83.3077078000,42.2617050000,-83.30771,42.2617
353984070,2082,school,Warren Valley School,-83.3088194000,42.3447593000,-83.30882,42.34476
353984311,2082,school,William Ford Senior Activities Center,-83.2777068000,42.2580939000,-83.27771,42.25809
353984999,2082,school,Westwood School,-83.2963187000,42.2889268000,-83.29632,42.28893
354012438,2082,school,Clara B Ford School,-83.2430706000,42.3425639000,-83.24307,42.34256
354013887,2082,school,Divine Child Elementary School,-83.2843429000,42.3199839000,-83.28434,42.31998
354014308,2082,school,Dar-Al-Arqam School,-83.2145000000,42.3437000000,-83.2145,42.3437
354014389,2082,school,Muslim American Youth Academy,-83.2290214000,42.3305940000,-83.22902,42.33059
354021331,2082,school,Tawheed Center School,-83.2225000000,42.3432000000,-83.2225,42.3432
354022967,2082,school,Guardian Lutheran School,-83.2776000000,42.3123000000,-83.2776,42.3123
354023003,2082,school,Academy for Business and Technology,-83.2934000000,42.2738000000,-83.2934,42.2738
354023030,2082,school,Academy of Inkster,-83.3212000000,42.3041000000,-83.3212,42.3041
354023255,2082,school,Beacon Day Treatment Center School,-83.3241000000,42.3048000000,-83.3241,42.3048
354025323,2082,school,Quality Academy,-83.3119000000,42.2888000000,-83.3119,42.2888
1168679106,2303,cafe,,-83.2222330000,42.3038515000,-83.22223,42.30385
1502463184,2303,cafe,Starbucks,-83.2468017000,42.3051024000,-83.2468,42.3051
1503605078,2303,cafe,Biggby Coffee,-83.2517728000,42.3038986000,-83.25177,42.3039
2365262180,2303,cafe,Cigaro,-83.2447334000,42.3058772000,-83.24473,42.30588
2370921723,2303,cafe,Biggby Coffee,-83.2879826000,42.3264870000,-83.28798,42.32649
2625501654,2303,cafe,Starbucks,-83.2998032000,42.3258387000,-83.2998,42.32584
3142333652,2501,supermarket,Greenland Market,-83.2927432000,42.3258630000,-83.29274,42.32586
3317872751,2501,supermarket,Market Fresh Foods,-83.2362997000,42.3349636000,-83.2363,42.33496
6138464038,2082,school,Avondale School,-83.3116919000,42.2954688000,-83.31169,42.29547
6744668486,2082,school,Clara B. Ford Academy,-83.2438701000,42.3402474000,-83.24387,42.34025
6744668487,2082,school,Vista Meadows Academy,-83.2436916000,42.3407880000,-83.24369,42.34079
7012890551,2303,cafe,City Coffeehouse,-83.2090387000,42.2579334000,-83.20904,42.25793
7012923952,2303,cafe,Luke & Lulu's Café,-83.2164956000,42.2526607000,-83.2165,42.25266
7399795020,2501,supermarket,Liquor Store,-83.2872318000,42.3413828000,-83.28723,42.34138
367813753,2007,library,Abraham Lincoln Library,-83.0909000000,42.4328000000,-83.0909,42.4328
367815301,2008,town_hall,Detroit North Central City Hall,-83.0788000000,42.4330000000,-83.0788,42.433
6395143351,2005,post_office,United States Post Office,-83.0476778000,42.4337371000,-83.04768,42.43374
336322051,2001,police,,-83.4877467000,42.2988019000,-83.48775,42.2988
367814468,2001,police,Van Buren Police Station,-83.4945000000,42.2332000000,-83.4945,42.2332
367815294,2008,town_hall,Canton Township Hall,-83.4878275000,42.2985139000,-83.48783,42.29851
966833346,2007,library,Plymouth District Library,-83.4673079000,42.3716568000,-83.46731,42.37166
974784230,2001,police,Plymouth Police,-83.4669618000,42.3721374000,-83.46696,42.37214
2948738041,2001,police,Plymouth Township Police,-83.4476661000,42.3616653000,-83.44767,42.36167
3739483210,2002,fire_station,City of Plymouth Fire,-83.4669040000,42.3720068000,-83.4669,42.37201
5670149512,2002,fire_station,PLymouth Township Firestation #2,-83.4494994000,42.3860863000,-83.4495,42.38609
5832379626,2005,post_office,The UPS Store,-83.4676174000,42.3506584000,-83.46762,42.35066
367813104,2002,fire_station,Belleville Fire Department,-83.4873000000,42.2069000000,-83.4873,42.2069
367813807,2007,library,Fred C Fischer Library,-83.4912000000,42.2076000000,-83.4912,42.2076
367815277,2008,town_hall,Sumpter Township Hall,-83.4819000000,42.1318000000,-83.4819,42.1318
4228974940,2002,fire_station,Charter Township of Van Buren Fire Station #1,-83.4828421000,42.1905157000,-83.48284,42.19052
5265453818,2001,police,Belleville Police Station,-83.4855060000,42.2051592000,-83.48551,42.20516
367813277,2002,fire_station,Engine Number 47 Fire Station,-83.0388204000,42.4226685000,-83.03882,42.42267
367813315,2002,fire_station,Engine Number 56 Fire Station,-83.0632000000,42.4300000000,-83.0632,42.43
367813329,2002,fire_station,Engine Number 64 Fire Station,-83.0297000000,42.3900000000,-83.0297,42.39
973631929,2001,police,Hamtramck Police,-83.0526501000,42.3995654000,-83.05265,42.39957
4642980541,2009,courthouse,31st District Court,-83.0525292000,42.3993619000,-83.05253,42.39936
7625616578,2001,police,Highland Park Police,-83.0895386000,42.3953363000,-83.08954,42.39534
7626676718,2001,police,Highland Park Police,-83.1013601000,42.4099644000,-83.10136,42.40996
367813281,2002,fire_station,Engine Number 10 Fire Station,-83.0980185000,42.3335881000,-83.09802,42.33359
367813328,2002,fire_station,Engine Number 63 Fire Station,-83.0936000000,42.3467000000,-83.0936,42.3467
367814534,2007,library,Duffield Library,-83.0935340000,42.3630931000,-83.09353,42.36309
2760041240,2002,fire_station,Detroit Fire Department Engine Company #5,-83.0636676000,42.3489197000,-83.06367,42.34892
367813878,2007,library,Riverview Library,-83.1959000000,42.1720000000,-83.1959,42.172
367814939,2001,police,Riverview Police Station,-83.1943603000,42.1769710000,-83.19436,42.17697
367815314,2008,town_hall,Riverview City Hall,-83.1951360000,42.1768934000,-83.19514,42.17689
4592661878,2005,post_office,,-83.1927464000,42.1749245000,-83.19275,42.17492
367813292,2002,fire_station,Engine Number 30 Fire Station,-83.1702000000,42.4127000000,-83.1702,42.4127
367813318,2002,fire_station,Engine Number 59 Fire Station,-83.2182000000,42.4231000000,-83.2182,42.4231
367813771,2007,library,Henry Chaney Library,-83.2054000000,42.3952000000,-83.2054,42.3952
4529991227,2007,library,,-83.1540961000,42.4145314000,-83.1541,42.41453
367813324,2002,fire_station,Engine Number 8 Fire Station (Closed),-83.0639874000,42.3244534000,-83.06399,42.32445
367813296,2002,fire_station,Engine Number 23 Fire Station,-83.0364000000,42.3756000000,-83.0364,42.3756
367814033,2007,library,Elmwood Park Library,-83.0234241000,42.3400356000,-83.02342,42.34004
633874554,2002,fire_station,Engine House #11,-83.0311687000,42.3544800000,-83.03117,42.35448
367813268,2002,fire_station,Engine Number 35 Fire Station,-83.0809000000,42.3854000000,-83.0809,42.3854
367815306,2008,town_hall,Detroit North End City Hall,-83.0791000000,42.3733000000,-83.0791,42.3733
7650230473,2001,police,WSU Police Department,-83.0715639000,42.3649552000,-83.07156,42.36496
367813105,2009,courthouse,Grosse Point Shores Courthouse,-82.8766807000,42.4368198000,-82.87668,42.43682
367813298,2002,fire_station,Grosse Point Shore Fire Station,-82.8772267000,42.4369965000,-82.87723,42.437
367813300,2002,fire_station,Harper Woods Fire Station,-82.9237142000,42.4335783000,-82.92371,42.43358
367813791,2007,library,Harper Woods Public Library,-82.9240785000,42.4325851000,-82.92408,42.43259
367814462,2001,police,Harper Woods Police Station,-82.9238393000,42.4332881000,-82.92384,42.43329
367814463,2001,police,Grosse Point Shore Police Station,-82.8770342000,42.4371253000,-82.87703,42.43713
367815289,2008,town_hall,Harper Woods City Hall,-82.9240108000,42.4329713000,-82.92401,42.43297
2274030813,2008,town_hall,Grosse Pointe Woods City Hall,-82.9098491000,42.4320939000,-82.90985,42.43209
367814269,2007,library,Laura Ingalls Wilder Library,-83.0298000000,42.4336000000,-83.0298,42.4336
2365265266,2001,police,Airport Police,-83.3287804000,42.2302137000,-83.32878,42.23021
5481416056,2002,fire_station,Romulus Fire Department,-83.3208729000,42.1951055000,-83.32087,42.19511
354022908,2005,post_office,Grosse Ile Post Office,-83.1500552000,42.1306747000,-83.15006,42.13067
367813076,2009,courthouse,Flat Rock Courthouse,-83.2811000000,42.0947000000,-83.2811,42.0947
367813238,2002,fire_station,Woodhaven Fire Station,-83.2468389000,42.1373571000,-83.24684,42.13736
367813283,2002,fire_station,Trenton Fire Station,-83.1787000000,42.1389000000,-83.1787,42.1389
367813301,2002,fire_station,Gibralter Fire Station,-83.1899000000,42.0921000000,-83.1899,42.0921
367814461,2001,police,Grosse Ile Police Station,-83.1588026000,42.1283982000,-83.1588,42.1284
367814464,2001,police,Trenton Police Station,-83.1784000000,42.1394000000,-83.1784,42.1394
367814474,2001,police,Woodhaven Police Station,-83.2446000000,42.1376000000,-83.2446,42.1376
367815269,2008,town_hall,Woodhaven City Hall,-83.2454000000,42.1374000000,-83.2454,42.1374
367815283,2008,town_hall,Grosse Ile Township Hall,-83.1623000000,42.1069000000,-83.1623,42.1069
367815284,2008,town_hall,Gibralter City Hall,-83.1892979000,42.0924821000,-83.1893,42.09248
494404086,2002,fire_station,Flat Rock Fire Department,-83.2815551000,42.0954768000,-83.28156,42.09548
494404287,2001,police,Flat Rock Police Department,-83.2815551000,42.0952221000,-83.28156,42.09522
2084959531,2001,police,Wayne County Sheriff - Marine,-83.1777903000,42.1288116000,-83.17779,42.12881
5459648999,2001,police,Woodhaven Police department,-83.2456584000,42.1372208000,-83.24566,42.13722
7440338233,2001,police,,-83.1892843000,42.0924150000,-83.18928,42.09242
367813370,2002,fire_station,Northville Fire Station,-83.4854497000,42.4306968000,-83.48545,42.4307
367814452,2001,police,Northville Police Station,-83.4851337000,42.4306074000,-83.48513,42.43061
367815308,2008,town_hall,Northville City Hall,-83.4849351000,42.4307697000,-83.48494,42.43077
367813260,2002,fire_station,Engine Number 41 Fire Station,-83.0032000000,42.3799000000,-83.0032,42.3799
367813272,2002,fire_station,Engine Number 50 Fire Station,-82.9859000000,42.4206000000,-82.9859,42.4206
367813278,2002,fire_station,Engine Number 46 Fire Station,-83.0037000000,42.3991000000,-83.0037,42.3991
367813325,2002,fire_station,Engine Number 9 Fire Station,-83.0131000000,42.3472000000,-83.0131,42.3472
367813848,2007,library,John F Gray Library,-83.0016000000,42.3591000000,-83.0016,42.3591
367814960,2001,police,Precinct 9 Police Station,-82.9953000000,42.4094000000,-82.9953,42.4094
367815311,2008,town_hall,DetroitNortheast City Hall,-82.9877000000,42.4259000000,-82.9877,42.4259
367813078,2009,courthouse,Grosse Point Farms Municipal Court,-82.8920928000,42.4066006000,-82.89209,42.4066
367813266,2002,fire_station,Engine Number 38 Fire Station,-82.9506000000,42.3725000000,-82.9506,42.3725
367813303,2002,fire_station,Grosse Point Park Fire Station,-82.9374000000,42.3766000000,-82.9374,42.3766
367813304,2002,fire_station,Grosse Point Fire Station,-82.9124000000,42.3861000000,-82.9124,42.3861
367813317,2002,fire_station,Engine Number 58 Fire Station,-82.9548000000,42.4173000000,-82.9548,42.4173
367813319,2002,fire_station,Engine Number 52 Fire Station,-82.9564000000,42.3970000000,-82.9564,42.397
367813722,2007,library,Chandler Park Library,-82.9744000000,42.4016000000,-82.9744,42.4016
367813862,2007,library,Jefferson Library,-82.9372470000,42.4040659000,-82.93725,42.40407
367814266,2007,library,John Monteith Library,-82.9506609000,42.3774075000,-82.95066,42.37741
367814460,2001,police,Grosse Point Police Station,-82.9114000000,42.3865000000,-82.9114,42.3865
367815278,2008,town_hall,Grosse Point City Hall,-82.9119000000,42.3864000000,-82.9119,42.3864
367815292,2008,town_hall,Grosse Point Park City Hall,-82.9373000000,42.3761000000,-82.9373,42.3761
3887348889,2001,police,Precinct 5 Police Station,-82.9696075000,42.3681922000,-82.96961,42.36819
5430295124,2008,town_hall,Grosse Pointe Farms City Hall,-82.8924282000,42.4064920000,-82.89243,42.40649
5430295125,2001,police,Grosse Pointe Farms Police Station,-82.8921410000,42.4064337000,-82.89214,42.40643
367813915,2007,library,Detroit Municipal Reference Library,-83.0433073000,42.3297366000,-83.04331,42.32974
367813925,2007,library,Detroit Public Library Skillman Branch,-83.0468690000,42.3339438000,-83.04687,42.33394
367815302,2008,town_hall,Detroit City Hall Adminstrative Office,-83.0436649000,42.3296818000,-83.04366,42.32968
2365997488,2001,police,Detroit Police Department HQ,-83.0577532000,42.3300386000,-83.05775,42.33004
2365998223,2002,fire_station,Detroit Fire Department HQ,-83.0578873000,42.3302408000,-83.05789,42.33024
2411073461,2001,police,Detroit Police,-83.0527996000,42.3323336000,-83.0528,42.33233
5960379047,2005,post_office,The UPS Store,-83.0471955000,42.3294569000,-83.0472,42.32946
4592675584,2001,police,Wyandotte Police Department,-83.1482646000,42.2135790000,-83.14826,42.21358
5978681838,2005,post_office,Wyandotte Post Office,-83.1521363000,42.1995993000,-83.15214,42.1996
7155058133,2005,post_office,The UPS Store,-83.1552046000,42.2003159000,-83.1552,42.20032
5123211906,2001,police,Metroparks Police,-83.4308960000,42.1746851000,-83.4309,42.17469
4457726965,2005,post_office,,-83.2977245000,42.4338776000,-83.29772,42.43388
367813269,2002,fire_station,Engine Number 34 Fire Station,-83.1321000000,42.3464000000,-83.1321,42.3464
367813271,2002,fire_station,"DFD Engine 51 firehouse (Squad 5, Medic 18)",-83.1408027000,42.4250376000,-83.1408,42.42504
367813289,2002,fire_station,Engine Number 31 Fire Station,-83.1109337000,42.3484119000,-83.11093,42.34841
367813323,2002,fire_station,Engine Number 66 Fire Station,-83.1338000000,42.3386000000,-83.1338,42.3386
367813376,2002,fire_station,River Rouge Fire Station,-83.1349166000,42.2729275000,-83.13492,42.27293
367813899,2007,library,Richard Library,-83.1401000000,42.3695000000,-83.1401,42.3695
367814024,2007,library,Edwin F Conely Library,-83.1273000000,42.3319000000,-83.1273,42.3319
367814043,2007,library,Sherwood Forest Library,-83.1442000000,42.4313000000,-83.1442,42.4313
367814454,2001,police,Precinct 10 Police Station,-83.1385486000,42.3765550000,-83.13855,42.37656
367814466,2001,police,Ecorse Police Station,-83.1389845000,42.2546113000,-83.13898,42.25461
367814950,2001,police,River Rouge Police Station,-83.1349000000,42.2730000000,-83.1349,42.273
367815273,2008,town_hall,Ecorse City Hall,-83.1390007000,42.2545417000,-83.139,42.25454
367815312,2008,town_hall,River Rouge City Hall,-83.1348875000,42.2730678000,-83.13489,42.27307
6864808859,2005,post_office,United States Post Office,-83.1201845000,42.3300792000,-83.12018,42.33008
354025737,2005,post_office,Romulus Post Office,-83.3949000000,42.2218000000,-83.3949,42.2218
367813072,2009,courthouse,Thirty-Forth District Court,-83.3842000000,42.2211000000,-83.3842,42.2211
367813350,2002,fire_station,Romulus Fire Department,-83.3975000000,42.2206000000,-83.3975,42.2206
367814976,2001,police,Romulus Police Station,-83.3969000000,42.2207000000,-83.3969,42.2207
367815045,2099,public_building,Romulus Civic Center,-83.3832000000,42.2217000000,-83.3832,42.2217
3241959348,2007,library,Garden City Public Library,-83.3537202000,42.3318448000,-83.35372,42.33184
7599047494,2005,post_office,FedEx,-83.3859951000,42.3432250000,-83.386,42.34322
354013503,2005,post_office,Dearborn Post Office,-83.1782000000,42.3212000000,-83.1782,42.3212
354029221,2005,post_office,Former Melvindale Post Office,-83.1757000000,42.2820000000,-83.1757,42.282
367813103,2009,courthouse,Dearborn Courthouse,-83.1764051000,42.3215607000,-83.17641,42.32156
367813273,2002,fire_station,Engine Number 49 Fire Station,-83.1661000000,42.3793000000,-83.1661,42.3793
367814898,2001,police,Melvindale Police Station,-83.1755284000,42.2830180000,-83.17553,42.28302
367815164,2008,town_hall,Melvindale City Hall,-83.1753533000,42.2827662000,-83.17535,42.28277
367815052,2099,public_building,Redford Public Service Building,-83.2944000000,42.3741000000,-83.2944,42.3741
354013535,2005,post_office,Dearborn Post Office,-83.2593000000,42.3016000000,-83.2593,42.3016
354029030,2005,post_office,Inkster Post Office,-83.3073486000,42.2954909000,-83.30735,42.29549
367813106,2009,courthouse,22nd District Court,-83.2971943000,42.2956685000,-83.29719,42.29567
367813358,2002,fire_station,Inkster Fire Station,-83.3089142000,42.2947863000,-83.30891,42.29479
367814459,2001,police,Dearborn Heights Police Station,-83.2893779000,42.2962267000,-83.28938,42.29623
367814904,2001,police,Inkster Police Station,-83.2969508000,42.2956780000,-83.29695,42.29568
367815267,2008,town_hall,West Warren City Hall,-83.2294907000,42.3430174000,-83.22949,42.34302
4433440106,2005,post_office,Allen Park Post Office,-83.2139019000,42.2578069000,-83.2139,42.25781
5954686720,2005,post_office,United States Post Office,-83.3124043000,42.2924936000,-83.3124,42.29249
6548455208,2001,police,Allen Park Police Department,-83.2112707000,42.2594411000,-83.21127,42.25944
