osm_id,code,fclass,name,point_x,point_y,lon,lat
353929020,2082,school,East School,-83.0915916000,42.5064245000,-83.09159,42.50642
353932094,2082,school,Ford School,-83.0877017000,42.4514253000,-83.0877,42.45143
353948387,2082,school,Longfellow School,-83.0999246000,42.4719805000,-83.09992,42.47198
353959254,2082,school,Oakland School,-83.1157585000,42.4811470000,-83.11576,42.48115
353963306,2082,school,Roosevelt School,-83.0957579000,42.4847581000,-83.09576,42.48476
353968358,2082,school,Saint Justins School,-83.0874239000,42.4533697000,-83.08742,42.45337
353969198,2082,school,Saint Mary Magdalene School,-83.1024246000,42.4694805000,-83.10242,42.46948
353978456,2082,school,Susick School,-83.0940935000,42.5558680000,-83.09409,42.55587
353981791,2082,school,United Oaks School,-83.0943686000,42.4569807000,-83.09437,42.45698
353986589,2082,school,Woodland School,-83.1110364000,42.4997579000,-83.11104,42.49976
354015515,2082,school,Troy Career Center,-83.1202000000,42.5394000000,-83.1202,42.5394
354020167,2082,school,,-83.0924000000,42.4916000000,-83.0924,42.4916
354022558,2082,school,Great Oaks Academy,-83.0950000000,42.4979000000,-83.095,42.4979
354023084,2082,school,Advantage Alternative Junior High School,-83.1032000000,42.4578000000,-83.1032,42.4578
354027432,2082,school,Oakland Children's Academy,-83.1043000000,42.5493000000,-83.1043,42.5493
599357858,2303,cafe,Starbucks,-83.1099121000,42.5645352000,-83.10991,42.56454
1012847669,2501,supermarket,Fuji Market & China Merchandise,-83.1056946000,42.5269396000,-83.10569,42.52694
1027991650,2082,school,Plain English CRM Solutions,-83.1124084000,42.5191880000,-83.11241,42.51919
4604995675,2501,supermarket,Alnoor Meat Market,-83.1056808000,42.5263532000,-83.10568,42.52635
4604995676,2501,supermarket,Tienda Mexicana,-83.1058699000,42.5262682000,-83.10587,42.52627
4680609692,2501,supermarket,Polish Market,-83.0883630000,42.5492861000,-83.08836,42.54929
4944827226,2501,supermarket,H Mart,-83.0900801000,42.5655995000,-83.09008,42.5656
4962153313,2303,cafe,Chazzano Coffee Roasters,-83.1137172000,42.4612832000,-83.11372,42.46128
5018858521,2303,cafe,Detroit Fleet Food Truck Park,-83.1128363000,42.4609102000,-83.11284,42.46091
5953964013,2501,supermarket,168 Asian Mart,-83.1087720000,42.5307590000,-83.10877,42.53076
6749891874,2082,school,Keys Grace Academy,-83.0958145000,42.4916287000,-83.09581,42.49163
6782818513,2082,school,International Academy East,-83.1202680000,42.5680416000,-83.12027,42.56804
6782818518,2082,school,Baker Middle School,-83.1213650000,42.5679389000,-83.12136,42.56794
7118713945,2303,cafe,Starbucks,-83.1107413000,42.5345516000,-83.11074,42.53455
7264955908,2501,supermarket,Kroger,-83.1053008000,42.4627525000,-83.1053,42.46275
353920960,2082,school,Colombiere Conference & Retreat Center,-83.4582754000,42.7314183000,-83.45828,42.73142
353928547,2082,school,Dublin Elementary School,-83.4671617000,42.6347535000,-83.46716,42.63475
353928585,2082,school,Duck Lake School,-83.5757766000,42.6839188000,-83.57578,42.68392
353961463,2082,school,Pontiac Lake School,-83.4357733000,42.6741975000,-83.43577,42.6742
353969998,2082,school,St. Patrick Catholic School,-83.4621614000,42.6291982000,-83.46216,42.6292
353983827,2082,school,Webster School,-83.4454953000,42.6586421000,-83.4455,42.65864
354013996,2082,school,Cedar Crest Academy,-83.4671413000,42.7473137000,-83.46714,42.74731
354014153,2082,school,Country Oaks Elementary School,-83.5612000000,42.5955000000,-83.5612,42.5955
354019676,2082,school,Springfield Christian Academy,-83.4572000000,42.7425000000,-83.4572,42.7425
354019686,2082,school,Springfield Plains Elementary School,-83.4603555000,42.7575083000,-83.46036,42.75751
354025779,2082,school,Huron Valley Adult Education School,-83.5757000000,42.6850000000,-83.5757,42.685
354027493,2082,school,Oakland Technical Center Northwest,-83.4666000000,42.7357000000,-83.4666,42.7357
2290760404,2303,cafe,Starbucks,-83.5317749000,42.6514570000,-83.53177,42.65146
3290194154,2083,kindergarten,Crosshill Community Preschool,-83.5435271000,42.7510634000,-83.54353,42.75106
6806225431,2082,school,Oakland Schools Technical Campus Northwest,-83.4529300000,42.7366628000,-83.45293,42.73666
7412363613,2303,cafe,Biggby Coffee,-83.4475794000,42.6035867000,-83.44758,42.60359
7443279190,2303,cafe,Blazing Bagels,-83.4864774000,42.5913646000,-83.48648,42.59136
7490240217,2303,cafe,Biggby Coffee,-83.4921551000,42.5967011000,-83.49216,42.5967
7507473929,2303,cafe,Tim Hortons,-83.4457021000,42.6148130000,-83.4457,42.61481
7538746977,2303,cafe,Starbucks,-83.5031138000,42.6479385000,-83.50311,42.64794
454627430,2501,supermarket,Kroger,-83.4186494000,42.4990200000,-83.41865,42.49902
2319117232,2402,motel,Knights Inn,-83.4174639000,42.4663726000,-83.41746,42.46637
3244771923,2303,cafe,Tim Hortons,-83.4237194000,42.4686543000,-83.42372,42.46865
4329771975,2501,supermarket,India Grocers,-83.4338065000,42.4703404000,-83.43381,42.47034
4329771978,2082,school,Professional Bartenders School,-83.4341613000,42.4703336000,-83.43416,42.47033
353982636,2082,school,The Corners (private),-83.3241001000,42.5517006000,-83.3241,42.5517
354023619,2082,school,Bloomfield Maples Montessori School,-83.3850000000,42.5419000000,-83.385,42.5419
354028545,2082,school,Frankel Jewish Academy,-83.4019967000,42.5438977000,-83.402,42.5439
354029534,2082,school,Learning Circle Academy,-83.3222000000,42.5514000000,-83.3222,42.5514
1661882622,2501,supermarket,Whole Foods Market,-83.3630347000,42.5293341000,-83.36303,42.52933
1663481947,2501,supermarket,Plum Market,-83.3589223000,42.5420216000,-83.35892,42.54202
3308080556,2501,supermarket,Gordon Food Service,-83.3600027000,42.5145836000,-83.36,42.51458
3875600958,2303,cafe,Tim Hortons,-83.3613856000,42.5432772000,-83.36139,42.54328
3875601157,2012,community_centre,American house,-83.3686570000,42.5420020000,-83.36866,42.542
4179886081,2303,cafe,Kubba House,-83.4362963000,42.5280953000,-83.4363,42.5281
4237716864,2501,supermarket,New York International Market,-83.3593826000,42.5305098000,-83.35938,42.53051
4325312173,2303,cafe,Gest Omelettes,-83.4391495000,42.5286462000,-83.43915,42.52865
4325312183,2303,cafe,Sanka Tei Take Out Sushi,-83.4388585000,42.5286532000,-83.43886,42.52865
4328017508,2303,cafe,Miracle Coffee,-83.4431953000,42.5279661000,-83.4432,42.52797
7431474341,2303,cafe,Zingerman's Coffee,-83.3589529000,42.5418071000,-83.35895,42.54181
7434783254,2501,supermarket,Aldi,-83.3586575000,42.5242266000,-83.35866,42.52423
7454811423,2501,supermarket,Busch's,-83.3786465000,42.5293217000,-83.37865,42.52932
7487291326,2501,supermarket,Johnny Pomodoro's Fresh Market,-83.3388203000,42.5279059000,-83.33882,42.52791
353968299,2082,school,Saint Joseph School,-83.2493838000,42.7916975000,-83.24938,42.7917
353994108,2082,school,Community Education Center,-83.2427169000,42.7880864000,-83.24272,42.78809
353994164,2082,school,Blanch Simms School,-83.2388280000,42.7980862000,-83.23883,42.79809
353994184,2082,school,Oak Hollow Christian School,-83.2491062000,42.7983640000,-83.24911,42.79836
354012344,2082,school,Community Education Resource Center,-83.2384795000,42.7526952000,-83.23848,42.7527
354015302,2082,school,Upland Hills School,-83.1896000000,42.8059000000,-83.1896,42.8059
354019694,2082,school,Stadium Drive Elementary School,-83.2414728000,42.7550980000,-83.24147,42.7551
354021053,2082,school,Scripps Middle School,-83.2403248000,42.7526243000,-83.24032,42.75262
354023616,2082,school,Blanche Sims Elementary School,-83.2353000000,42.7861000000,-83.2353,42.7861
354029367,2082,school,Learning Options High School,-83.2384795000,42.7533176000,-83.23848,42.75332
354029617,2082,school,Lake Orion Baptist School,-83.2420414000,42.7524668000,-83.24204,42.75247
353916547,2082,school,Birney High School,-83.2432629000,42.4894797000,-83.24326,42.48948
353920469,2082,school,Clinton Junior High School,-83.1868718000,42.4583692000,-83.18687,42.45837
353926055,2082,school,Dewey School,-83.1960388000,42.4533692000,-83.19604,42.45337
353939365,2082,school,Hillel School,-83.1968723000,42.4764245000,-83.19687,42.47642
353944783,2082,school,Kennedy School,-83.2107535000,42.4653135000,-83.21075,42.46531
353947277,2082,school,Lederle School,-83.2282621000,42.4575357000,-83.22826,42.45754
353949415,2082,school,Magnolia School,-83.2138172000,42.4517026000,-83.21382,42.4517
353965556,2082,school,Rotenberg School,-83.2051203000,42.4801670000,-83.20512,42.48017
353981153,2082,school,Avery School & Berkley School District Administrative Offices,-83.1935406000,42.4817430000,-83.19354,42.48174
353981237,2082,school,Tyndall School,-83.1924278000,42.4847577000,-83.19243,42.48476
354013820,2082,school,De Ror Montessori Center,-83.1822000000,42.4678000000,-83.1822,42.4678
354014030,2082,school,Childs Academy Montessori Center,-83.2216000000,42.4834000000,-83.2216,42.4834
354014175,2082,school,Clinton Education Center,-83.1867000000,42.4575000000,-83.1867,42.4575
354014464,2082,school,Chandler Park Academy at Oak Park,-83.1800000000,42.4657000000,-83.18,42.4657
354015110,2082,school,University of Phoenix,-83.2445000000,42.4867000000,-83.2445,42.4867
354015504,2082,school,Tyndall Center,-83.1913000000,42.4852000000,-83.1913,42.4852
354022855,2082,school,Allan College of Liberal Arts and Sciences,-83.1822000000,42.4678000000,-83.1822,42.4678
354023053,2082,school,Academy of Michigan,-83.2005000000,42.4457000000,-83.2005,42.4457
354023329,2082,school,Avery Early Childhood Center,-83.1928814000,42.4815874000,-83.19288,42.48159
354027171,2082,school,Magnolia Center,-83.2126000000,42.4512000000,-83.2126,42.4512
354027397,2082,school,Oholei Yosef Yitzchak Lubavi School,-83.1882000000,42.4594000000,-83.1882,42.4594
354027462,2082,school,Oak Park Head Start-Star Program,-83.1867000000,42.4575000000,-83.1867,42.4575
354027842,2082,school,Nsoroma Institute,-83.1867000000,42.4575000000,-83.1867,42.4575
354029646,2082,school,McIntyre Elementary School,-83.2371000000,42.4946000000,-83.2371,42.4946
2789441726,2082,school,International Montessori Academy,-83.2110314000,42.4815346000,-83.21103,42.48153
3465528665,2012,community_centre,Oak Park Community Center,-83.1881501000,42.4662908000,-83.18815,42.46629
6753896339,2082,school,NOVA Discipline Academy,-83.1862258000,42.4583468000,-83.18623,42.45835
353915062,2082,school,Bagley School,-83.2952132000,42.6253107000,-83.29521,42.62531
353916405,2082,school,Bethume School,-83.3057689000,42.6266995000,-83.30577,42.6267
353918304,2082,school,Central School,-83.2879912000,42.6378105000,-83.28799,42.63781
353923187,2082,school,Crofoot School,-83.3026630000,42.6372150000,-83.30266,42.63722
353929155,2082,school,Eastern Junior High School,-83.2738242000,42.6369772000,-83.27382,42.63698
353932389,2082,school,Franklin School,-83.2863236000,42.6114221000,-83.28632,42.61142
353947299,2082,school,Le Baron School,-83.2774364000,42.6661435000,-83.27744,42.66614
353949502,2082,school,Malkim School,-83.2816036000,42.6766989000,-83.2816,42.6767
353950678,2082,school,Mark Twain School,-83.2777137000,42.6525326000,-83.27771,42.65253
353950770,2082,school,McConnell School,-83.2813242000,42.6311440000,-83.28132,42.63114
353951366,2082,school,McCarroll School,-83.2863251000,42.6547547000,-83.28633,42.65475
353959886,2082,school,Owen School,-83.2985481000,42.6700321000,-83.29855,42.67003
353961452,2082,school,Pontiac Central High School,-83.3016026000,42.6375326000,-83.3016,42.63753
353966326,2082,school,Saint Frederick School,-83.2871576000,42.6322550000,-83.28716,42.63226
353970052,2082,school,Saint Michaels School,-83.2899361000,42.6491992000,-83.28994,42.6492
353985561,2082,school,Whittier School,-83.2916016000,42.6128109000,-83.2916,42.61281
353985712,2082,school,Wilson School,-83.2746571000,42.6239219000,-83.27466,42.62392
353987023,2082,school,Wisner School,-83.3054920000,42.6486435000,-83.30549,42.64864
354020082,2082,school,Whitmer Resource Center,-83.2845000000,42.6348000000,-83.2845,42.6348
354020691,2082,school,Shalom Baptist Church School,-83.3092124000,42.7118207000,-83.30921,42.71182
354022688,2082,school,Bethune Alternative Education School,-83.3045000000,42.6256906000,-83.3045,42.62569
354023495,2082,school,Baldwin Road Church Academy,-83.3014000000,42.6823000000,-83.3014,42.6823
354023612,2082,school,Bloomfield Hills High School,-83.2849243000,42.5789319000,-83.28492,42.57893
354027699,2082,school,Perdue Academy,-83.2749000000,42.6371000000,-83.2749,42.6371
354028942,2082,school,Life Skills Center of Pontiac,-83.2853000000,42.6343000000,-83.2853,42.6343
354029360,2082,school,McCarroll Center,-83.3045000000,42.6257000000,-83.3045,42.6257
2103671608,2303,cafe,Tim Hortons,-83.2877565000,42.7058257000,-83.28776,42.70583
5015700390,2303,cafe,Starbucks,-83.2816263000,42.5809876000,-83.28163,42.58099
6106172576,2303,cafe,Starbucks,-83.3000913000,42.6074185000,-83.30009,42.60742
6796917000,2082,school,Pontiac Academy for Excellence,-83.2986751000,42.6450003000,-83.29868,42.645
6796953617,2082,school,Owen Elementary School,-83.3002549000,42.6831926000,-83.30025,42.68319
7486637033,2501,supermarket,Aldi,-83.3019043000,42.6113921000,-83.3019,42.61139
7486659682,2501,supermarket,Better Health Market & Cafe,-83.3006586000,42.6098901000,-83.30066,42.60989
354019743,2082,school,South Lyon Adult and Alternative High School,-83.6504106000,42.4733323000,-83.65041,42.47333
958364717,2303,cafe,,-83.6512786000,42.4604835000,-83.65128,42.46048
2903305575,2303,cafe,Starbucks,-83.6154931000,42.5155493000,-83.61549,42.51555
2916801286,2501,supermarket,Kroger,-83.6474364000,42.4326871000,-83.64744,42.43269
2967725009,2303,cafe,Java House,-83.6513564000,42.4762816000,-83.65136,42.47628
3678134450,2303,cafe,Biggby Coffee,-83.6169883000,42.5155984000,-83.61699,42.5156
4282272284,2082,school,South Lyon High School,-83.6503194000,42.4733281000,-83.65032,42.47333
5133921033,2082,school,,-83.6207533000,42.4773975000,-83.62075,42.4774
6023190788,2303,cafe,Tim Hortons,-83.6151561000,42.5147387000,-83.61516,42.51474
353913445,2082,school,Adams School,-83.3477166000,42.6947534000,-83.34772,42.69475
353915599,2082,school,Baumont School,-83.4160498000,42.6455871000,-83.41605,42.64559
353917637,2082,school,Burt Elementary,-83.3593814000,42.6314211000,-83.35938,42.63142
353919345,2082,school,Cherokee Hills School,-83.3399369000,42.6422544000,-83.33994,42.64225
353922832,2082,school,Crary Junior High School,-83.3571596000,42.6461431000,-83.35716,42.64614
353922896,2082,school,Crescent Lake School,-83.3927158000,42.6403096000,-83.39272,42.64031
353928672,2082,school,Dutes School,-83.3891050000,42.6525316000,-83.3891,42.65253
353935254,2082,school,Grayson School,-83.3638279000,42.6911422000,-83.36383,42.69114
353937674,2082,school,Haviland School,-83.3913265000,42.6269765000,-83.39133,42.62698
353937951,2082,school,Hawthorne School,-83.3193820000,42.6744762000,-83.31938,42.67448
353946453,2082,school,Lambert School,-83.3566034000,42.6253102000,-83.3566,42.62531
353947136,2082,school,Leggett School,-83.3593821000,42.6528097000,-83.35938,42.65281
353951209,2082,school,Mason Junior High School,-83.3641057000,42.6886423000,-83.36411,42.68864
353951800,2082,school,McVittie School,-83.3849396000,42.6947531000,-83.38494,42.69475
353961465,2082,school,Pontiac Junior Academy,-83.3999385000,42.6516982000,-83.39994,42.6517
353962600,2082,school,Riverside School,-83.3918829000,42.6561426000,-83.39188,42.65614
353964993,2082,school,Momentum Academy,-83.3359549000,42.6336159000,-83.33595,42.63362
353969490,2082,school,St. Mary's Preparatory,-83.3574357000,42.5944773000,-83.35744,42.59448
353971613,2082,school,Sandburg School,-83.3613268000,42.6578095000,-83.36133,42.65781
353974173,2082,school,Silver Lake School,-83.3293825000,42.6850316000,-83.32938,42.68503
353978392,2082,school,Stringham School,-83.3721597000,42.6394764000,-83.37216,42.63948
353983422,2082,school,Washington Junior High School,-83.3185472000,42.6325326000,-83.31855,42.63253
353983821,2082,school,Webster School,-83.3157695000,42.6361436000,-83.31577,42.63614
353984326,2082,school,Williams Lake School,-83.4071616000,42.6750310000,-83.40716,42.67503
354013576,2082,school,Mount Zion Christian School,-83.3303000000,42.6850000000,-83.3303,42.685
354013876,2082,school,Donelson Hills Elementary School,-83.3410000000,42.6417000000,-83.341,42.6417
354019633,2082,school,Waterford Alternative High School Manley Campus,-83.3974000000,42.6888000000,-83.3974,42.6888
354019643,2082,school,Waterford Adventist School,-83.3980000000,42.6525000000,-83.398,42.6525
354019655,2082,school,Waterford Christian Academy,-83.3549000000,42.6351000000,-83.3549,42.6351
354019659,2082,school,Waterford Village School,-83.4043000000,42.6991000000,-83.4043,42.6991
354019665,2082,school,Waterford General Baptist Academy,-83.3810000000,42.6810000000,-83.381,42.681
354020222,2082,school,Saint Mary's Preparatory School,-83.3593953000,42.5944207000,-83.3594,42.59442
354020373,2082,school,Saint Stephen Lutheran School,-83.3859000000,42.6939000000,-83.3859,42.6939
354020890,2082,school,Stepanski Early Childhood Center,-83.4071919000,42.6749220000,-83.40719,42.67492
354021086,2082,school,Saints Cyril and Methodius Seminary,-83.3593966000,42.5944054000,-83.3594,42.59441
354023050,2082,school,Academy of Waterford,-83.3732744000,42.6826579000,-83.37327,42.68266
354023686,2082,school,Brookfield Academy at Laurel Camp,-83.4062000000,42.6739000000,-83.4062,42.6739
354027265,2082,school,Marist Academy at Waterford,-83.3350000000,42.6344000000,-83.335,42.6344
354027725,2082,school,Patricia E Knudsen School,-83.3940000000,42.6399000000,-83.394,42.6399
354028528,2082,school,Kingsley Montgomery School,-83.3896000000,42.7011000000,-83.3896,42.7011
354028862,2082,school,Lutes Campus,-83.3898000000,42.6526000000,-83.3898,42.6526
354028953,2082,school,John D Pierce Middle School,-83.3904279000,42.6739974000,-83.39043,42.674
4463770310,2501,supermarket,Kroger,-83.3610431000,42.5740658000,-83.36104,42.57407
4949208111,2303,cafe,Ellen's Bakery and Cafe,-83.3346150000,42.6089064000,-83.33462,42.60891
5428113142,2303,cafe,Tim Hortons,-83.3261948000,42.6357346000,-83.32619,42.63573
6757357095,2082,school,Oakside Scholars Charter Academy,-83.3351491000,42.6434850000,-83.33515,42.64348
353929259,2082,school,Eastover School,-83.2143766000,42.5972559000,-83.21438,42.59726
353929567,2082,school,Emerson School,-83.2627137000,42.6614215000,-83.26271,42.66142
353948397,2082,school,Longfellow School,-83.2663241000,42.6391996000,-83.26632,42.6392
353961454,2082,school,Notre Dame Preparatory School,-83.2577142000,42.6741991000,-83.25771,42.6742
353962931,2082,school,Roeper School,-83.2521554000,42.5928115000,-83.25216,42.59281
353963374,2082,school,Sacred Heart School,-83.2102110000,42.6291999000,-83.21021,42.6292
353982404,2082,school,Cranbrook Kingswood Middle School for Boys,-83.2546549000,42.5761450000,-83.25465,42.57614
353986145,2082,school,Willis School,-83.2454913000,42.6683659000,-83.24549,42.66837
354013960,2082,school,Charles L Bowers School Farm,-83.2178013000,42.6054859000,-83.2178,42.60549
354021160,2082,school,Greater Life Academy,-83.2516000000,42.6596000000,-83.2516,42.6596
354021893,2082,school,Saint Hugo of the Hills School,-83.2483920000,42.5961927000,-83.24839,42.59619
354022793,2082,school,Havenwyck School,-83.2471000000,42.6609000000,-83.2471,42.6609
354022841,2110,hospital,Havenwyck Hospital,-83.2495036000,42.6614558000,-83.2495,42.66146
354023320,2082,school,Avondale Academy,-83.2228000000,42.6301000000,-83.2228,42.6301
354023505,2082,school,Baker College of Auburn Hills,-83.2474000000,42.6608000000,-83.2474,42.6608
354023520,2082,school,Avondale Montessori Pre-Kindergarten,-83.2287127000,42.6299290000,-83.22871,42.62993
354023603,2082,school,Bloomfield Hills Montessori Center,-83.2470000000,42.5899000000,-83.247,42.5899
354025350,2082,school,Prodigy Child Development Center,-83.2546000000,42.6076000000,-83.2546,42.6076
354027284,2082,school,Marist Academy Middle Division,-83.2584467000,42.6733386000,-83.25845,42.67334
354027516,2082,school,Oakland Christian School,-83.2329359000,42.6890271000,-83.23294,42.68903
354027869,2082,school,Notre Dame Preparatory School,-83.2593930000,42.6752120000,-83.25939,42.67521
539277465,2303,cafe,Biggby Coffee,-83.2331932000,42.6701662000,-83.23319,42.67017
2407670583,2303,cafe,Starbucks,-83.1695014000,42.5967075000,-83.1695,42.59671
2410245864,2501,supermarket,Kroger,-83.1480363000,42.5930050000,-83.14804,42.593
2411322182,2501,supermarket,Kroger,-83.1720733000,42.6211020000,-83.17207,42.6211
3508583576,2303,cafe,Antonio's Cafe & Grill,-83.1696983000,42.6347968000,-83.1697,42.6348
4568950751,2303,cafe,Main Cafe,-83.2287381000,42.6537889000,-83.22874,42.65379
5281251345,2303,cafe,Starbucks,-83.2212356000,42.6731131000,-83.22124,42.67311
5312145054,2501,supermarket,Trader Joe's,-83.1950866000,42.6828730000,-83.19509,42.68287
5425918662,2082,school,Cranbrook Kingswood Middle School for Girls,-83.2480503000,42.5737824000,-83.24805,42.57378
6573815285,2303,cafe,Tim Hortons,-83.2493294000,42.6188697000,-83.24933,42.61887
7132334170,2082,school,Musson Elementary,-83.2049527000,42.7110457000,-83.20495,42.71105
353915097,2082,school,Bailey Lake School,-83.3718856000,42.7569743000,-83.37189,42.75697
353918012,2082,school,Carpenter School,-83.2891055000,42.7278091000,-83.28911,42.72781
353983887,2082,school,Webber School,-83.3088524000,42.7641294000,-83.30885,42.76413
354012449,2082,school,Oakland Christan School,-83.4010038000,42.7414101000,-83.401,42.74141
354019538,2082,school,Waldon Middle School,-83.2924000000,42.7364000000,-83.2924,42.7364
354026913,2082,school,Moose Tree Nature Preserve School,-83.3044000000,42.7657000000,-83.3044,42.7657
354027706,2082,school,Orion Oaks Elementary School,-83.2830000000,42.7615000000,-83.283,42.7615
354027817,2082,school,Paint Creek Elementary School,-83.3020000000,42.7851000000,-83.302,42.7851
5554796222,2501,supermarket,Kroger,-83.3051542000,42.7338830000,-83.30515,42.73388
353916460,2082,school,Bloomfield School,-83.2632652000,42.5475343000,-83.26327,42.54753
353916854,2082,school,Booth School,-83.2932655000,42.5336455000,-83.29327,42.53365
353921595,2082,school,Conant Elementary School,-83.2885440000,42.5597562000,-83.28854,42.55976
353922812,2082,school,Cranbrook Upper High School,-83.2531354000,42.5678937000,-83.25314,42.56789
353925858,2082,school,Detroit County School,-83.2660419000,42.5139237000,-83.26604,42.51392
353950832,2082,school,Marian High School,-83.2629870000,42.5344789000,-83.26299,42.53448
353961651,2082,school,Rice High School,-83.2629871000,42.5358678000,-83.26299,42.53587
353970365,2082,school,Saint Regis School,-83.2615982000,42.5369789000,-83.2616,42.53698
353971815,2082,school,Saint Michael School,-83.2663190000,42.4730910000,-83.26632,42.47309
353975626,2082,school,Southfield Number 10 School,-83.2788193000,42.4728131000,-83.27882,42.47281
353981797,2082,school,Valley Woods School,-83.2593755000,42.5275346000,-83.25938,42.52753
353995040,2082,school,Westchester School,-83.2529871000,42.5447566000,-83.25299,42.54476
354013697,2082,school,Detroit Country Day Upper School,-83.2658318000,42.5147347000,-83.26583,42.51473
354013701,2082,school,Detroit Country Day Middle School,-83.2648000000,42.5116000000,-83.2648,42.5116
354013722,2082,school,Detroit Country Day Junior School,-83.2634670000,42.5477869000,-83.26347,42.54779
354019854,2082,school,Woodmont Academy,-83.2654000000,42.4742000000,-83.2654,42.4742
354019932,2082,school,Yeshivas Darchei Torah,-83.2579762000,42.5027163000,-83.25798,42.50272
354022669,2082,school,Bingham Farms Elementary School,-83.2766000000,42.5156000000,-83.2766,42.5156
354023099,2082,school,Akiva Hebrew Day School,-83.2541668000,42.5023012000,-83.25417,42.5023
354028520,2082,school,Kensington Academy,-83.2571000000,42.5274000000,-83.2571,42.5274
354029530,2082,school,Laurus Academy,-83.2609000000,42.4686000000,-83.2609,42.4686
6099179136,2083,kindergarten,Bloomin' Kids Preschool at Conant,-83.2891695000,42.5600109000,-83.28917,42.56001
6099299738,2303,cafe,Starbucks,-83.2857244000,42.5459964000,-83.28572,42.546
7380637787,2501,supermarket,Kroger,-83.2623683000,42.5463794000,-83.26237,42.54638
7380637788,2303,cafe,Starbucks,-83.2620974000,42.5461798000,-83.2621,42.54618
354020724,2082,school,Sherman Lifelong Learning Center,-83.4380000000,42.8575000000,-83.438,42.8575
354028236,2082,school,Oxford Christian Academy,-83.2672000000,42.8178000000,-83.2672,42.8178
2477827129,2501,supermarket,Bueches Supermarket,-83.4533041000,42.8569639000,-83.4533,42.85696
3123354242,2303,cafe,Idle Away Coffee,-83.2693388000,42.8268526000,-83.26934,42.82685
6516427651,2082,school,Oxford Schools Early College,-83.2655337000,42.8249770000,-83.26553,42.82498
6517164900,2082,school,Oxford Virtual Academy,-83.2579510000,42.8189160000,-83.25795,42.81892
6517164905,2082,school,Oxford Bridges High School,-83.2364876000,42.8202163000,-83.23649,42.82022
353915289,2082,school,Baldwin School,-83.1638244000,42.7369758000,-83.16382,42.73698
354027481,2082,school,Oak Arbor New Church School,-83.1489000000,42.7307000000,-83.1489,42.7307
354028922,2082,school,Living Word Lutheran School,-83.1366000000,42.7432000000,-83.1366,42.7432
353917332,2082,school,Brooklands Elementary School,-83.1215387000,42.6351279000,-83.12154,42.63513
353948645,2082,school,Long Meadow School,-83.1613226000,42.6875323000,-83.16132,42.68753
353951718,2082,school,McGregor Elementary School,-83.1482661000,42.6755881000,-83.14827,42.67559
353958389,2082,school,North Hill School,-83.1321939000,42.6933164000,-83.13219,42.69332
353966892,2082,school,Saint John School,-83.1468464000,42.6812342000,-83.14685,42.68123
354015251,2082,school,Troy Continuing Education,-83.1537413000,42.6058022000,-83.15374,42.6058
354023516,2082,school,Avondale Academy Alternative High School and The Meadows Learning Center,-83.1583451000,42.6348119000,-83.15835,42.63481
354023682,2082,school,Brookfield Academy Troy,-83.1472549000,42.5768647000,-83.14725,42.57686
354027299,2082,school,Troy College and Career High School,-83.1534818000,42.6059297000,-83.15348,42.60593
354027535,2082,school,Oakland Steiner School,-83.1509456000,42.6229940000,-83.15095,42.62299
354027976,2082,school,Rochester Adult Center for Education,-83.1211000000,42.6358000000,-83.1211,42.6358
354028846,2082,school,Lutheran High School Northwest,-83.1532000000,42.6415000000,-83.1532,42.6415
2823074918,2082,school,Hart Middle School,-83.1248313000,42.7002639000,-83.12483,42.70026
2823081345,2082,school,Stoney Creek High School,-83.1222684000,42.7000223000,-83.12227,42.70002
3224846764,2501,supermarket,Hollywood Market,-83.1359902000,42.6949872000,-83.13599,42.69499
4568926976,2303,cafe,Life Cafe,-83.1369416000,42.6684361000,-83.13694,42.66844
4568926977,2303,cafe,Starbucks,-83.1353624000,42.6972270000,-83.13536,42.69723
4569618321,2501,supermarket,Fresh Thyme,-83.1305789000,42.6510485000,-83.13058,42.65105
5521787355,2082,school,Holy Family Regional School South Campus,-83.1083540000,42.6427615000,-83.10835,42.64276
6429063786,2303,cafe,Starbucks,-83.1323583000,42.6351072000,-83.13236,42.63511
6595505901,2501,supermarket,Aldi,-83.1341618000,42.6646140000,-83.13416,42.66461
6934970966,2501,supermarket,Kroger,-83.1514895000,42.6802719000,-83.15149,42.68027
7672005259,2303,cafe,Zo's Bubble Tea,-83.1352462000,42.6938402000,-83.13525,42.69384
354021090,2082,school,Saint William Catholic School,-83.4841100000,42.5348172000,-83.48411,42.53482
354022395,2082,school,Glengary Elementary School,-83.5020000000,42.5677000000,-83.502,42.5677
354027940,2082,school,Novi Meadows School,-83.4969532000,42.4778672000,-83.49695,42.47787
354027944,2082,school,Novi Adult Education,-83.4975647000,42.4761580000,-83.49756,42.47616
354029610,2082,school,Koby International Academy,-83.4561587000,42.4660183000,-83.45616,42.46602
538774823,2501,supermarket,Busch's,-83.4575835000,42.4676455000,-83.45758,42.46765
2709968569,2504,mall,Twelve Mile Crossing at Fountain Walk,-83.4845115000,42.4908908000,-83.48451,42.49089
3136694503,2081,university,Michigan State University Tollgate Education Center,-83.4580641000,42.4988690000,-83.45806,42.49887
3177029554,2501,supermarket,Better Health,-83.4687635000,42.4782715000,-83.46876,42.47827
4455833668,2303,cafe,Raw Organic Juice Bar,-83.4729800000,42.4812575000,-83.47298,42.48126
4509761285,2303,cafe,Bagger Dave's Burger Tavern,-83.4750808000,42.4814316000,-83.47508,42.48143
4510605790,2501,supermarket,One World Market,-83.4672977000,42.4782348000,-83.4673,42.47823
4514672276,2303,cafe,Novi Coney Island,-83.4765476000,42.4800647000,-83.47655,42.48006
6311200613,2303,cafe,Starbucks,-83.4767611000,42.4938803000,-83.47676,42.49388
6790495816,2082,school,Novi Career Preparation High School,-83.4978908000,42.4760457000,-83.49789,42.47605
7415234578,2303,cafe,Presotea,-83.4408970000,42.5763888000,-83.4409,42.57639
354019417,2082,school,William E Miller School (closed),-83.3252109000,42.4594349000,-83.32521,42.45943
354027402,2082,school,O'Connell School at Sarah Fisher (former),-83.3211260000,42.5020719000,-83.32113,42.50207
5284833145,2303,cafe,Starbucks,-83.3194811000,42.5062752000,-83.31948,42.50628
354027525,2082,school,Oakland International Academy,-83.3308000000,42.4851000000,-83.3308,42.4851
2315415808,2303,cafe,Starbucks,-83.3742601000,42.4638022000,-83.37426,42.4638
2684568544,2501,supermarket,Heartland Marketplace,-83.3763344000,42.4998621000,-83.37633,42.49986
2696977518,2303,cafe,Jungle Java,-83.3377014000,42.4987087000,-83.3377,42.49871
2696977527,2501,supermarket,Kroger,-83.3373030000,42.4836350000,-83.3373,42.48364
2939437496,2084,college,CoinCoach,-83.4016557000,42.4539283000,-83.40166,42.45393
3244863950,2501,supermarket,China Merchandise,-83.3892893000,42.4682634000,-83.38929,42.46826
3244863952,2303,cafe,Orange Leaf,-83.3951071000,42.4686778000,-83.39511,42.46868
4137258551,2303,cafe,Scrambler Marie's,-83.3610833000,42.4997282000,-83.36108,42.49973
4333797449,2303,cafe,Biggby Coffee,-83.3361925000,42.4557922000,-83.33619,42.45579
353913468,2082,school,Holly Academy,-83.6413369000,42.7922505000,-83.64134,42.79225
353914667,2082,school,Apolla School,-83.6193879000,42.6569748000,-83.61939,42.65697
354013716,2082,school,Highland Hills Baptist Academy,-83.6208755000,42.6706860000,-83.62088,42.67069
354013746,2082,school,Highland Montessori School,-83.6621870000,42.6074006000,-83.66219,42.6074
354013753,2082,school,Holly Academy,-83.6401000000,42.7917000000,-83.6401,42.7917
1804658441,2501,supermarket,Holly Foods,-83.6275446000,42.8088120000,-83.62754,42.80881
2290765617,2303,cafe,Starbucks,-83.6008292000,42.5926372000,-83.60083,42.59264
7465371577,2303,cafe,Starbucks,-83.6044000000,42.5933835000,-83.6044,42.59338
7467750504,2303,cafe,Proving Grounds Coffee,-83.6005108000,42.5906308000,-83.60051,42.59063
7681065662,2303,cafe,Tim Hortons,-83.6254039000,42.8061991000,-83.6254,42.8062
2378098643,2501,supermarket,Kroger,-83.5148783000,42.5263714000,-83.51488,42.52637
6806983706,2082,school,Oakland Opportunity Academy,-83.5156675000,42.5381086000,-83.51567,42.53811
353941573,2082,school,Hunter Community Center,-83.1396512000,42.5369844000,-83.13965,42.53698
353943649,2082,school,Jefferson School,-83.1757618000,42.5297571000,-83.17576,42.52976
353960563,2082,school,Parkland School,-83.1379829000,42.5319794000,-83.13798,42.53198
353961348,2082,school,Poppleton School,-83.1688183000,42.5622566000,-83.16882,42.56226
353974256,2082,school,Shrine of the Little Flower School,-83.1702052000,42.5028132000,-83.17021,42.50281
354014332,2082,school,Christian Leadership Academy,-83.1478000000,42.5721000000,-83.1478,42.5721
354020996,2082,school,Shrine Catholic Grade School,-83.1700864000,42.5024264000,-83.17009,42.50243
354021003,2082,school,Shrine Catholic Academy,-83.1894035000,42.5177939000,-83.1894,42.51779
354021036,2082,school,Shrine Catholic High School,-83.1907186000,42.5181477000,-83.19072,42.51815
354027383,2082,school,Oakland Schools Technical Campus Southeast,-83.1799414000,42.5371310000,-83.17994,42.53713
538376062,2303,cafe,Tim Hortons,-83.1647023000,42.5336413000,-83.1647,42.53364
538376086,2303,cafe,Starbucks,-83.1671521000,42.5481989000,-83.16715,42.5482
1868197083,2303,cafe,Starbucks,-83.1676843000,42.5621747000,-83.16768,42.56217
2410233051,2081,university,Walsh College,-83.1475160000,42.5737972000,-83.14752,42.5738
2410304479,2303,cafe,Tim Hortons,-83.1285903000,42.5678555000,-83.12859,42.56786
2411279339,2303,cafe,TCBY,-83.1843874000,42.5485480000,-83.18439,42.54855
5257996261,2303,cafe,Biggy Coffee,-83.1961477000,42.5032720000,-83.19615,42.50327
5502349822,2303,cafe,Green Space Cafe Take Away,-83.1992628000,42.5310040000,-83.19926,42.531
353948392,2082,school,Longfellow School,-83.1543710000,42.4908689000,-83.15437,42.49087
430025466,2303,cafe,Starbucks,-83.1444354000,42.4879899000,-83.14444,42.48799
430027018,2303,cafe,Five15,-83.1467742000,42.4853830000,-83.14677,42.48538
2941061593,2303,cafe,Cafe Du Marquis,-83.1457145000,42.4865217000,-83.14571,42.48652
2941062923,2303,cafe,Cacao Tree Cafe,-83.1457136000,42.4873369000,-83.14571,42.48734
4944827225,2303,cafe,Cafe Muse,-83.1467630000,42.4865681000,-83.14676,42.48657
5641994876,2501,supermarket,Trader Joe's,-83.1637468000,42.4954060000,-83.16375,42.49541
6255159323,2303,cafe,Atomic Coffee,-83.1439702000,42.4871540000,-83.14397,42.48715
6270559854,2303,cafe,Dessert Oasis Coffee Roasters,-83.1440683000,42.4893927000,-83.14407,42.48939
6273773638,2303,cafe,Bean & Leaf Cafe,-83.1444863000,42.4895489000,-83.14449,42.48955
6821050606,2303,cafe,The Office Coffee Shop,-83.1480472000,42.4870276000,-83.14805,42.48703
353915278,2082,school,Baldwin School,-83.2188194000,42.5464234000,-83.21882,42.54642
353916426,2082,school,Beverly School,-83.2265966000,42.5225348000,-83.2266,42.52253
353917245,2082,school,Brookside School,-83.2429877000,42.5680897000,-83.24299,42.56809
353930320,2082,school,Evergreen School,-83.2413190000,42.5155905000,-83.24132,42.51559
353940200,2082,school,Holy Name School,-83.2218752000,42.5508677000,-83.22188,42.55087
1706091290,2501,supermarket,Market Fresh,-83.2241717000,42.5181262000,-83.22417,42.51813
1706091392,2303,cafe,Starbucks,-83.2240214000,42.5181776000,-83.22402,42.51818
2411297248,2501,supermarket,Kroger,-83.2105657000,42.5472201000,-83.21057,42.54722
3875600962,2303,cafe,pita Cafe,-83.2152130000,42.5473358000,-83.21521,42.54734
3875600963,2303,cafe,Starbucks Reserve,-83.2146984000,42.5468241000,-83.2147,42.54682
3911748965,2303,cafe,Tim Hortons,-83.2390994000,42.5016158000,-83.2391,42.50162
4225680474,2501,supermarket,Kroger,-83.2407354000,42.5005475000,-83.24074,42.50055
5608081568,2303,cafe,Eli Tea Faux Bubble Tea,-83.2144036000,42.5465440000,-83.2144,42.54654
5750271579,2303,cafe,Bateel USA,-83.2151147000,42.5472625000,-83.21511,42.54726
5750294738,2110,hospital,St. John Providence Health System,-83.2117606000,42.5446728000,-83.21176,42.54467
5750294742,2110,hospital,Masri Clinic For Laser and Cosmetic Surgery,-83.2114655000,42.5442875000,-83.21147,42.54429
5819644767,2303,cafe,Kingswood Cafe,-83.2436867000,42.5724906000,-83.24369,42.57249
5824659927,2303,cafe,Cafe Succo,-83.2178143000,42.5517428000,-83.21781,42.55174
353920371,2082,school,University High School,-83.1343701000,42.4672582000,-83.13437,42.46726
353932880,2082,school,Frost Junior High School,-83.1763160000,42.4617026000,-83.17632,42.4617
353935218,2082,school,Grant School,-83.1592907000,42.4503338000,-83.15929,42.45033
353942961,2082,school,Jackson School,-83.1628933000,42.4654838000,-83.16289,42.46548
4934853123,2303,cafe,Hilton Rd Cafe,-83.1233649000,42.4728130000,-83.12336,42.47281
4957289613,2501,supermarket,Ferndale Foods,-83.1419212000,42.4607753000,-83.14192,42.46078
4957405052,2501,supermarket,Organic Food & Vitamin Center,-83.1358278000,42.4607034000,-83.13583,42.4607
4957405059,2014,arts_centre,Painting with a Twist,-83.1364598000,42.4606859000,-83.13646,42.46069
4957523230,2303,cafe,Java Hutt,-83.1358226000,42.4604689000,-83.13582,42.46047
4957564251,2012,community_centre,Kulick Community Center,-83.1437787000,42.4559915000,-83.14378,42.45599
4962249569,2303,cafe,Biggby Coffee,-83.1436948000,42.4607574000,-83.14369,42.46076
4962249597,2303,cafe,Catfe Lounge,-83.1430149000,42.4532110000,-83.14301,42.45321
5608081576,2303,cafe,Detroit Bubble Tea Ferndale,-83.1353254000,42.4610609000,-83.13533,42.46106
6090012658,2501,supermarket,Kroger,-83.1604108000,42.4466480000,-83.16041,42.44665
6283624345,2303,cafe,Delite Cafe & Deli,-83.1384571000,42.4606364000,-83.13846,42.46064
